[{
        "id": "1",
        "postalCode": "01001",
        "name": "Adrar",
        "wilayaId": "1",
        "arName": "أدرار",
        "longitude": "28.0064311",
        "latitude": "-0.2807066"
    },
    {
        "id": "2",
        "postalCode": "01002",
        "name": "Tamest",
        "wilayaId": "1",
        "arName": "تأماست",
        "longitude": "27.4257197",
        "latitude": "-0.2807673"
    },
    {
        "id": "3",
        "postalCode": "01003",
        "name": "Charouine",
        "wilayaId": "1",
        "arName": "شروين",
        "longitude": "29.0189483",
        "latitude": "-0.2690792"
    },
    {
        "id": "4",
        "postalCode": "01004",
        "name": "Reggane",
        "wilayaId": "1",
        "arName": "رڨان",
        "longitude": "25.4775826",
        "latitude": "-4.3665328"
    },
    {
        "id": "5",
        "postalCode": "01005",
        "name": "In Zghmir",
        "wilayaId": "1",
        "arName": "ان زغمير",
        "longitude": "25.8711501",
        "latitude": "-6.252223"
    },
    {
        "id": "6",
        "postalCode": "01006",
        "name": "Tit",
        "wilayaId": "1",
        "arName": "تــيـــت",
        "longitude": "26.9368382",
        "latitude": "1.481824"
    },
    {
        "id": "7",
        "postalCode": "01007",
        "name": "Ksar Kaddour",
        "wilayaId": "1",
        "arName": "قصر قدور",
        "longitude": "29.5798013",
        "latitude": "0.3643512"
    },
    {
        "id": "8",
        "postalCode": "01008",
        "name": "Tsabit",
        "wilayaId": "1",
        "arName": "تسابيت",
        "longitude": "28.3533514",
        "latitude": "-0.2255095"
    },
    {
        "id": "9",
        "postalCode": "01009",
        "name": "Timimoun",
        "wilayaId": "1",
        "arName": "تيميمون",
        "longitude": "29.2536341",
        "latitude": "0.218653"
    },
    {
        "id": "10",
        "postalCode": "01010",
        "name": "Ouled Said",
        "wilayaId": "1",
        "arName": "أولاد سعيد",
        "longitude": "29.4217292",
        "latitude": "0.2254341"
    },
    {
        "id": "11",
        "postalCode": "01011",
        "name": "Zaouiet Kounta",
        "wilayaId": "1",
        "arName": "زاوية كنتة",
        "longitude": "27.2293681",
        "latitude": "-0.2202846"
    },
    {
        "id": "12",
        "postalCode": "01012",
        "name": "Aoulef",
        "wilayaId": "1",
        "arName": "أولف",
        "longitude": "26.9710733",
        "latitude": "1.059451"
    },
    {
        "id": "13",
        "postalCode": "01013",
        "name": "Timokten",
        "wilayaId": "1",
        "arName": "تيمقتن",
        "longitude": "27.0221605",
        "latitude": "1.0255048"
    },
    {
        "id": "14",
        "postalCode": "01014",
        "name": "Tamentit",
        "wilayaId": "1",
        "arName": "تامنطيت",
        "longitude": "27.764557",
        "latitude": "-0.2722121"
    },
    {
        "id": "15",
        "postalCode": "01015",
        "name": "Fenoughil",
        "wilayaId": "1",
        "arName": "فنوغيل",
        "longitude": "27.6489014",
        "latitude": "-0.3155995"
    },
    {
        "id": "16",
        "postalCode": "01016",
        "name": "Tinerkouk",
        "wilayaId": "1",
        "arName": "زاوية دباغ",
        "longitude": "29.708777",
        "latitude": "0.6955288"
    },
    {
        "id": "17",
        "postalCode": "01017",
        "name": "Deldoul",
        "wilayaId": "1",
        "arName": "دﻟﺪول",
        "longitude": "34.2080511",
        "latitude": "3.2543828"
    },
    {
        "id": "18",
        "postalCode": "01018",
        "name": "Sali",
        "wilayaId": "1",
        "arName": "سالى",
        "longitude": "26.7370315",
        "latitude": "-2.8517184"
    },
    {
        "id": "19",
        "postalCode": "01019",
        "name": "Akabli",
        "wilayaId": "1",
        "arName": "أقبلي",
        "longitude": "26.7057062",
        "latitude": "1.344838"
    },
    {
        "id": "20",
        "postalCode": "01020",
        "name": "Metarfa",
        "wilayaId": "1",
        "arName": "المطارفة",
        "longitude": "28.5978205",
        "latitude": "-0.1587011"
    },
    {
        "id": "21",
        "postalCode": "01021",
        "name": "Ouled Ahmed Tammi",
        "wilayaId": "1",
        "arName": "أولاد أحمد تيمى",
        "longitude": "27.9766155",
        "latitude": "-0.20396"
    },
    {
        "id": "22",
        "postalCode": "01022",
        "name": "Bouda",
        "wilayaId": "1",
        "arName": "بودة",
        "longitude": "27.9779233",
        "latitude": "-0.4533424"
    },
    {
        "id": "23",
        "postalCode": "01023",
        "name": "Aougrout",
        "wilayaId": "1",
        "arName": "أوقروت",
        "longitude": "28.7499992",
        "latitude": "0.2412452"
    },
    {
        "id": "24",
        "postalCode": "01024",
        "name": "Talmine",
        "wilayaId": "1",
        "arName": "",
        "longitude": "27.9766155",
        "latitude": "-0.20396"
    },
    {
        "id": "25",
        "postalCode": "01025",
        "name": "Bordj Badji Mokhtar",
        "wilayaId": "1",
        "arName": "برج باجي مختار",
        "longitude": "22.9676154",
        "latitude": "-3.946422"
    },
    {
        "id": "26",
        "postalCode": "01026",
        "name": "Sbaa",
        "wilayaId": "1",
        "arName": "السبع",
        "longitude": "28.2112372",
        "latitude": "-0.1862527"
    },
    {
        "id": "27",
        "postalCode": "01027",
        "name": "Ouled Aissa",
        "wilayaId": "1",
        "arName": "أولاد عيسى",
        "longitude": "29.4201586",
        "latitude": "-0.104542"
    },
    {
        "id": "28",
        "postalCode": "01028",
        "name": "Timiaouine",
        "wilayaId": "1",
        "arName": "تيمياوين",
        "longitude": "20.9259001",
        "latitude": "0.7958642"
    },
    {
        "id": "29",
        "postalCode": "02001",
        "name": "Chlef",
        "wilayaId": "2",
        "arName": "الشلف",
        "longitude": "36.1691042",
        "latitude": "1.2838598"
    },
    {
        "id": "30",
        "postalCode": "02002",
        "name": "Tenes",
        "wilayaId": "2",
        "arName": "تنس",
        "longitude": "36.508324",
        "latitude": "1.2426542"
    },
    {
        "id": "31",
        "postalCode": "02003",
        "name": "Benairia",
        "wilayaId": "2",
        "arName": "بنايرية",
        "longitude": "36.3849733",
        "latitude": "1.3150523"
    },
    {
        "id": "32",
        "postalCode": "02004",
        "name": "El Karimia",
        "wilayaId": "2",
        "arName": "الكريمية",
        "longitude": "36.0774092",
        "latitude": "1.5112398"
    },
    {
        "id": "33",
        "postalCode": "02005",
        "name": "Tadjna",
        "wilayaId": "2",
        "arName": "تاجنة",
        "longitude": "36.3240803",
        "latitude": "1.1303901"
    },
    {
        "id": "34",
        "postalCode": "02006",
        "name": "Taougrite",
        "wilayaId": "2",
        "arName": "تاوقريت",
        "longitude": "36.2460876",
        "latitude": "0.8993445"
    },
    {
        "id": "35",
        "postalCode": "02007",
        "name": "Beni Haoua",
        "wilayaId": "2",
        "arName": "بني حواء",
        "longitude": "36.4938241",
        "latitude": "1.5198873"
    },
    {
        "id": "36",
        "postalCode": "02008",
        "name": "Sobha",
        "wilayaId": "2",
        "arName": "صبحة",
        "longitude": "36.1084781",
        "latitude": "1.1017012"
    },
    {
        "id": "37",
        "postalCode": "02009",
        "name": "Harchoun",
        "wilayaId": "2",
        "arName": "حرشون",
        "longitude": "36.1184786",
        "latitude": "1.4187143"
    },
    {
        "id": "38",
        "postalCode": "02010",
        "name": "Ouled Fares",
        "wilayaId": "2",
        "arName": "أولاد فارس",
        "longitude": "36.2302131",
        "latitude": "1.0951463"
    },
    {
        "id": "39",
        "postalCode": "02011",
        "name": "Sidi Akacha",
        "wilayaId": "2",
        "arName": "سيدي عكاشة",
        "longitude": "36.4357802",
        "latitude": "1.2554858"
    },
    {
        "id": "40",
        "postalCode": "02012",
        "name": "Boukadir",
        "wilayaId": "2",
        "arName": "بوقدير",
        "longitude": "36.0617947",
        "latitude": "1.1083316"
    },
    {
        "id": "41",
        "postalCode": "02013",
        "name": "Beni Rached",
        "wilayaId": "2",
        "arName": "بني راشد",
        "longitude": "36.2930145",
        "latitude": "1.4611361"
    },
    {
        "id": "42",
        "postalCode": "02014",
        "name": "Talassa",
        "wilayaId": "2",
        "arName": "تلعصة",
        "longitude": "36.4266341",
        "latitude": "1.0790634"
    },
    {
        "id": "43",
        "postalCode": "02015",
        "name": "Herenfa",
        "wilayaId": "2",
        "arName": "الهرنفة",
        "longitude": "36.2438569",
        "latitude": "1.0440444"
    },
    {
        "id": "44",
        "postalCode": "02016",
        "name": "Oued Goussine",
        "wilayaId": "2",
        "arName": "واد ڨوسين",
        "longitude": "36.4949721",
        "latitude": "1.3928579"
    },
    {
        "id": "45",
        "postalCode": "02017",
        "name": "Dahra",
        "wilayaId": "2",
        "arName": "الظهرة",
        "longitude": "36.2551398",
        "latitude": "0.8432006"
    },
    {
        "id": "46",
        "postalCode": "02018",
        "name": "Ouled Abbes",
        "wilayaId": "2",
        "arName": "أولاد عباس",
        "longitude": "36.2139534",
        "latitude": "1.4578336"
    },
    {
        "id": "47",
        "postalCode": "02019",
        "name": "Sendjas",
        "wilayaId": "2",
        "arName": "سنجاس",
        "longitude": "36.0396831",
        "latitude": "1.2713566"
    },
    {
        "id": "48",
        "postalCode": "02020",
        "name": "Zeboudja",
        "wilayaId": "2",
        "arName": "الزبوجة",
        "longitude": "36.3910799",
        "latitude": "1.3907765"
    },
    {
        "id": "49",
        "postalCode": "02021",
        "name": "Oued Sly",
        "wilayaId": "2",
        "arName": "واد سلي",
        "longitude": "36.0806537",
        "latitude": "1.1443351"
    },
    {
        "id": "50",
        "postalCode": "02022",
        "name": "Abou El Hassen",
        "wilayaId": "2",
        "arName": "أبو الحسن",
        "longitude": "36.407875",
        "latitude": "1.1184571"
    },
    {
        "id": "51",
        "postalCode": "02023",
        "name": "El Marsa",
        "wilayaId": "2",
        "arName": "المرصى",
        "longitude": "36.2599947",
        "latitude": "0.722512"
    },
    {
        "id": "52",
        "postalCode": "02024",
        "name": "Chettia",
        "wilayaId": "2",
        "arName": "الشطية",
        "longitude": "36.1782742",
        "latitude": "1.1791394"
    },
    {
        "id": "53",
        "postalCode": "02025",
        "name": "Sidi Abderrahmane",
        "wilayaId": "2",
        "arName": "سيدي عبد الرحمان",
        "longitude": "36.4236714",
        "latitude": "1.0492304"
    },
    {
        "id": "54",
        "postalCode": "02026",
        "name": "Moussadek",
        "wilayaId": "2",
        "arName": "مصدق",
        "longitude": "36.3521334",
        "latitude": "1.0004317"
    },
    {
        "id": "55",
        "postalCode": "02027",
        "name": "El Hadjadj",
        "wilayaId": "2",
        "arName": "الحجاج",
        "longitude": "35.6908338",
        "latitude": "1.538967"
    },
    {
        "id": "56",
        "postalCode": "02028",
        "name": "Labiod Medjadja",
        "wilayaId": "2",
        "arName": "الأبيض مجاجة",
        "longitude": "36.2682804",
        "latitude": "1.3325618"
    },
    {
        "id": "57",
        "postalCode": "02029",
        "name": "Oued Fodda",
        "wilayaId": "2",
        "arName": "واد الفضة",
        "longitude": "36.1995109",
        "latitude": "1.4672731"
    },
    {
        "id": "58",
        "postalCode": "02030",
        "name": "Ouled Ben Abdelkader",
        "wilayaId": "2",
        "arName": "أولاد بن عبد القادر",
        "longitude": "35.9670371",
        "latitude": "1.192049"
    },
    {
        "id": "59",
        "postalCode": "02031",
        "name": "Bouzghaia",
        "wilayaId": "2",
        "arName": "بوزغاية",
        "longitude": "36.3604333",
        "latitude": "1.1871646"
    },
    {
        "id": "60",
        "postalCode": "02032",
        "name": "Ain Merane",
        "wilayaId": "2",
        "arName": "عين مران",
        "longitude": "36.1625642",
        "latitude": "0.9651016"
    },
    {
        "id": "61",
        "postalCode": "02033",
        "name": "Oum Drou",
        "wilayaId": "2",
        "arName": "أم الذروع",
        "longitude": "36.2034869",
        "latitude": "1.3460801"
    },
    {
        "id": "62",
        "postalCode": "02034",
        "name": "Breira",
        "wilayaId": "2",
        "arName": "بريرة",
        "longitude": "36.4476233",
        "latitude": "1.5221188"
    },
    {
        "id": "63",
        "postalCode": "02035",
        "name": "Beni Bouateb",
        "wilayaId": "2",
        "arName": "بني بوعتاب",
        "longitude": "35.9895844",
        "latitude": "1.5589402"
    },
    {
        "id": "64",
        "postalCode": "03001",
        "name": "Laghouat",
        "wilayaId": "3",
        "arName": "الأغواط",
        "longitude": "33.7939523",
        "latitude": "2.8368501"
    },
    {
        "id": "65",
        "postalCode": "03002",
        "name": "Ksar El Hirane",
        "wilayaId": "3",
        "arName": "قصر الحيران",
        "longitude": "33.7855481",
        "latitude": "3.119366"
    },
    {
        "id": "66",
        "postalCode": "03003",
        "name": "Benacer Ben Chohra",
        "wilayaId": "3",
        "arName": "بن ناصر بن شهرة",
        "longitude": "33.7522913",
        "latitude": "2.9939138"
    },
    {
        "id": "67",
        "postalCode": "03004",
        "name": "Sidi Makhlouf",
        "wilayaId": "3",
        "arName": "سيدي مخلوف",
        "longitude": "34.1276242",
        "latitude": "3.0060262"
    },
    {
        "id": "68",
        "postalCode": "03005",
        "name": "Hassi Delaa",
        "wilayaId": "3",
        "arName": "حاسي دلاعة",
        "longitude": "33.4154299",
        "latitude": "3.5410309"
    },
    {
        "id": "69",
        "postalCode": "03006",
        "name": "Hassi R'Mel",
        "wilayaId": "3",
        "arName": "حاسي الرمل",
        "longitude": "32.9412958",
        "latitude": "3.2443135"
    },
    {
        "id": "70",
        "postalCode": "03007",
        "name": "Ain Mahdi",
        "wilayaId": "3",
        "arName": "عــيــن مـــاضــي",
        "longitude": "33.7955179",
        "latitude": "2.2924947"
    },
    {
        "id": "71",
        "postalCode": "03008",
        "name": "Tadjmout",
        "wilayaId": "3",
        "arName": "تاجموت",
        "longitude": "33.8376241",
        "latitude": "2.5234705"
    },
    {
        "id": "72",
        "postalCode": "03009",
        "name": "El Kheneg",
        "wilayaId": "3",
        "arName": "الخنق",
        "longitude": "33.7441108",
        "latitude": "2.7841758"
    },
    {
        "id": "73",
        "postalCode": "03010",
        "name": "Gueltat Sidi Saad",
        "wilayaId": "3",
        "arName": "قلتة سيدي سعد",
        "longitude": "34.2983511",
        "latitude": "1.9323492"
    },
    {
        "id": "74",
        "postalCode": "03011",
        "name": "Ain Sidi Ali",
        "wilayaId": "3",
        "arName": "عين سيدي علي",
        "longitude": "34.1666661",
        "latitude": "1.5412452"
    },
    {
        "id": "75",
        "postalCode": "03012",
        "name": "Beidha",
        "wilayaId": "3",
        "arName": "بيضاء",
        "longitude": "33.7873735",
        "latitude": "2.8829115"
    },
    {
        "id": "76",
        "postalCode": "03013",
        "name": "Brida",
        "wilayaId": "3",
        "arName": "بريدة",
        "longitude": "33.9495922",
        "latitude": "1.7465471"
    },
    {
        "id": "77",
        "postalCode": "03014",
        "name": "El Ghicha",
        "wilayaId": "3",
        "arName": "الغيشة",
        "longitude": "33.9297719",
        "latitude": "2.1396303"
    },
    {
        "id": "78",
        "postalCode": "03015",
        "name": "Hadj Mechri",
        "wilayaId": "3",
        "arName": "الحاج المشري",
        "longitude": "33.9572842",
        "latitude": "1.5908605"
    },
    {
        "id": "79",
        "postalCode": "03016",
        "name": "Sebgag",
        "wilayaId": "3",
        "arName": "سبقاق",
        "longitude": "34.0285379",
        "latitude": "1.9293458"
    },
    {
        "id": "80",
        "postalCode": "03017",
        "name": "Taouiala",
        "wilayaId": "3",
        "arName": "تاويالة",
        "longitude": "33.8715595",
        "latitude": "1.8530845"
    },
    {
        "id": "81",
        "postalCode": "03018",
        "name": "Tadjrouna",
        "wilayaId": "3",
        "arName": "تاجرونة",
        "longitude": "33.5036312",
        "latitude": "2.0924622"
    },
    {
        "id": "82",
        "postalCode": "03019",
        "name": "Aflou",
        "wilayaId": "3",
        "arName": "أفلو",
        "longitude": "34.1121156",
        "latitude": "2.0835167"
    },
    {
        "id": "83",
        "postalCode": "03020",
        "name": "El Assafia",
        "wilayaId": "3",
        "arName": "العسافية",
        "longitude": "33.8269722",
        "latitude": "2.9816293"
    },
    {
        "id": "84",
        "postalCode": "03021",
        "name": "Oued Morra",
        "wilayaId": "3",
        "arName": "وادي مرة",
        "longitude": "34.1666661",
        "latitude": "2.3079121"
    },
    {
        "id": "85",
        "postalCode": "03022",
        "name": "Oued M'Zi",
        "wilayaId": "3",
        "arName": "وادي مزي",
        "longitude": "33.9410427",
        "latitude": "2.4231133"
    },
    {
        "id": "86",
        "postalCode": "03023",
        "name": "El Haouaita",
        "wilayaId": "3",
        "arName": "الهوارية",
        "longitude": "37.0505755",
        "latitude": "10.9904863"
    },
    {
        "id": "87",
        "postalCode": "03024",
        "name": "Sidi Bouzid",
        "wilayaId": "3",
        "arName": "سيدي بوزيد",
        "longitude": "35.0363883",
        "latitude": "9.4595281"
    },
    {
        "id": "88",
        "postalCode": "04001",
        "name": "Oum El Bouaghi",
        "wilayaId": "4",
        "arName": "أم البواقي",
        "longitude": "35.8725963",
        "latitude": "7.0830052"
    },
    {
        "id": "89",
        "postalCode": "04002",
        "name": "Ain Beida",
        "wilayaId": "4",
        "arName": "عين البيضاء",
        "longitude": "35.7948292",
        "latitude": "7.3338883"
    },
    {
        "id": "90",
        "postalCode": "04003",
        "name": "Ain M'lila",
        "wilayaId": "4",
        "arName": "عين مليلة",
        "longitude": "36.0260869",
        "latitude": "6.4239017"
    },
    {
        "id": "91",
        "postalCode": "04004",
        "name": "Behir Chergui",
        "wilayaId": "4",
        "arName": "بحير الشرڨي",
        "longitude": "35.7937891",
        "latitude": "7.7132713"
    },
    {
        "id": "92",
        "postalCode": "04005",
        "name": "El Amiria",
        "wilayaId": "4",
        "arName": "العامرية",
        "longitude": "36.1101777",
        "latitude": "6.9026434"
    },
    {
        "id": "93",
        "postalCode": "04006",
        "name": "Sigus",
        "wilayaId": "4",
        "arName": "سيقوس",
        "longitude": "36.1085199",
        "latitude": "6.603674"
    },
    {
        "id": "94",
        "postalCode": "04007",
        "name": "El Belala",
        "wilayaId": "4",
        "arName": "البلالة",
        "longitude": "35.6660914",
        "latitude": "7.7837598"
    },
    {
        "id": "95",
        "postalCode": "04008",
        "name": "Ain Babouche",
        "wilayaId": "4",
        "arName": "عين بابوش",
        "longitude": "35.9402286",
        "latitude": "7.1751022"
    },
    {
        "id": "96",
        "postalCode": "04009",
        "name": "Berriche",
        "wilayaId": "4",
        "arName": "بريش",
        "longitude": "35.9155816",
        "latitude": "7.3676848"
    },
    {
        "id": "97",
        "postalCode": "04010",
        "name": "Ouled Hamla",
        "wilayaId": "4",
        "arName": "أولاد حملة",
        "longitude": "36.0811426",
        "latitude": "6.3334038"
    },
    {
        "id": "98",
        "postalCode": "04011",
        "name": "Dhala",
        "wilayaId": "4",
        "arName": "الضلعة",
        "longitude": "35.4610885",
        "latitude": "7.5379943"
    },
    {
        "id": "99",
        "postalCode": "04012",
        "name": "Ain Kercha",
        "wilayaId": "4",
        "arName": "عين كرشة",
        "longitude": "35.9275632",
        "latitude": "6.6811426"
    },
    {
        "id": "100",
        "postalCode": "04013",
        "name": "Hanchir Toumghani",
        "wilayaId": "4",
        "arName": "هنشير تومغني",
        "longitude": "35.9371712",
        "latitude": "6.7319584"
    },
    {
        "id": "101",
        "postalCode": "04014",
        "name": "El Djazia",
        "wilayaId": "4",
        "arName": "الجازيـــــــة",
        "longitude": "35.663473",
        "latitude": "7.5030506"
    },
    {
        "id": "102",
        "postalCode": "04015",
        "name": "Ain Diss",
        "wilayaId": "4",
        "arName": "عين الديس",
        "longitude": "35.8101391",
        "latitude": "7.2888545"
    },
    {
        "id": "103",
        "postalCode": "04016",
        "name": "Fkirina",
        "wilayaId": "4",
        "arName": "فكرينة",
        "longitude": "35.6638941",
        "latitude": "7.2909736"
    },
    {
        "id": "104",
        "postalCode": "04017",
        "name": "Souk Naamane",
        "wilayaId": "4",
        "arName": "سوق نعمان",
        "longitude": "35.93924",
        "latitude": "6.2583772"
    },
    {
        "id": "105",
        "postalCode": "04018",
        "name": "Zorg",
        "wilayaId": "4",
        "arName": "الزرڨ",
        "longitude": "35.8726014",
        "latitude": "7.1180248"
    },
    {
        "id": "106",
        "postalCode": "04019",
        "name": "El Fedjoudj Boughrara Saoudi",
        "wilayaId": "4",
        "arName": "الفجوج بوغرارة سعودى",
        "longitude": "35.709409",
        "latitude": "6.8162978"
    },
    {
        "id": "107",
        "postalCode": "04020",
        "name": "Ouled Zouai",
        "wilayaId": "4",
        "arName": "أولاد زواي",
        "longitude": "35.8556626",
        "latitude": "6.3821021"
    },
    {
        "id": "108",
        "postalCode": "04021",
        "name": "Bir Chouhada",
        "wilayaId": "4",
        "arName": "بئر الشهداء",
        "longitude": "35.9007146",
        "latitude": "6.1753867"
    },
    {
        "id": "109",
        "postalCode": "04022",
        "name": "Ksar Sbahi",
        "wilayaId": "4",
        "arName": "قصر صباحي",
        "longitude": "36.0820976",
        "latitude": "7.250204"
    },
    {
        "id": "110",
        "postalCode": "04023",
        "name": "Oued Nini",
        "wilayaId": "4",
        "arName": "وادي نيني",
        "longitude": "35.5716976",
        "latitude": "7.3377513"
    },
    {
        "id": "111",
        "postalCode": "04024",
        "name": "Meskiana",
        "wilayaId": "4",
        "arName": "مسكيانة",
        "longitude": "35.6297416",
        "latitude": "7.6523636"
    },
    {
        "id": "112",
        "postalCode": "04025",
        "name": "Ain Fekroune",
        "wilayaId": "4",
        "arName": "عين فكرون",
        "longitude": "35.9745986",
        "latitude": "6.851982"
    },
    {
        "id": "113",
        "postalCode": "04026",
        "name": "Rahia",
        "wilayaId": "4",
        "arName": "الراحية",
        "longitude": "35.7166662",
        "latitude": "7.6579122"
    },
    {
        "id": "114",
        "postalCode": "04027",
        "name": "Ain Zitoun",
        "wilayaId": "4",
        "arName": "عين الزيتون",
        "longitude": "35.6841587",
        "latitude": "6.9309782"
    },
    {
        "id": "115",
        "postalCode": "04028",
        "name": "Ouled Gacem",
        "wilayaId": "4",
        "arName": "أولاد ڨاسم",
        "longitude": "36.0328844",
        "latitude": "6.6594743"
    },
    {
        "id": "116",
        "postalCode": "04029",
        "name": "El Harmilia",
        "wilayaId": "4",
        "arName": "الحرملية",
        "longitude": "35.9257478",
        "latitude": "6.6176749"
    },
    {
        "id": "117",
        "postalCode": "05001",
        "name": "Batna",
        "wilayaId": "5",
        "arName": "باتنة",
        "longitude": "35.5784266",
        "latitude": "6.1083422"
    },
    {
        "id": "118",
        "postalCode": "05002",
        "name": "Ghassira",
        "wilayaId": "5",
        "arName": "غسيرة",
        "longitude": "35.0629605",
        "latitude": "6.1563323"
    },
    {
        "id": "119",
        "postalCode": "05003",
        "name": "Maafa",
        "wilayaId": "5",
        "arName": "معافة",
        "longitude": "35.2770359",
        "latitude": "5.8156273"
    },
    {
        "id": "120",
        "postalCode": "05004",
        "name": "Merouana",
        "wilayaId": "5",
        "arName": "مروانة",
        "longitude": "35.6417881",
        "latitude": "5.8172903"
    },
    {
        "id": "121",
        "postalCode": "05005",
        "name": "Seriana",
        "wilayaId": "5",
        "arName": "سريانة",
        "longitude": "35.7161562",
        "latitude": "6.127064"
    },
    {
        "id": "122",
        "postalCode": "05006",
        "name": "Menaa",
        "wilayaId": "5",
        "arName": "منعة",
        "longitude": "35.1373236",
        "latitude": "5.9981034"
    },
    {
        "id": "123",
        "postalCode": "05007",
        "name": "El Madher",
        "wilayaId": "5",
        "arName": "المعذر",
        "longitude": "35.6392974",
        "latitude": "6.3042185"
    },
    {
        "id": "124",
        "postalCode": "05008",
        "name": "Tazoult",
        "wilayaId": "5",
        "arName": "تازولت",
        "longitude": "35.470362",
        "latitude": "6.1694644"
    },
    {
        "id": "125",
        "postalCode": "05009",
        "name": "Ngaous",
        "wilayaId": "5",
        "arName": "نڨاوس",
        "longitude": "35.5525842",
        "latitude": "5.5189965"
    },
    {
        "id": "126",
        "postalCode": "05010",
        "name": "Guigba",
        "wilayaId": "5",
        "arName": "قيقبة",
        "longitude": "35.7407753",
        "latitude": "5.5352956"
    },
    {
        "id": "127",
        "postalCode": "05011",
        "name": "Inoughissen",
        "wilayaId": "5",
        "arName": "إينوغيسن",
        "longitude": "35.2771231",
        "latitude": "6.4628765"
    },
    {
        "id": "128",
        "postalCode": "05012",
        "name": "Ouyoun El Assafir",
        "wilayaId": "5",
        "arName": "عيون العصافير",
        "longitude": "35.5468473",
        "latitude": "6.2710449"
    },
    {
        "id": "129",
        "postalCode": "05013",
        "name": "Djerma",
        "wilayaId": "5",
        "arName": "جرمة",
        "longitude": "35.6853933",
        "latitude": "6.2267778"
    },
    {
        "id": "130",
        "postalCode": "05014",
        "name": "Bitam",
        "wilayaId": "5",
        "arName": "بيطام",
        "longitude": "35.1772246",
        "latitude": "4.9980505"
    },
    {
        "id": "131",
        "postalCode": "05015",
        "name": "Metkaouak",
        "wilayaId": "5",
        "arName": "عزيل عبد القادر",
        "longitude": "35.323352",
        "latitude": "4.6952399"
    },
    {
        "id": "132",
        "postalCode": "05016",
        "name": "Arris",
        "wilayaId": "5",
        "arName": "اريس",
        "longitude": "35.3105194",
        "latitude": "6.2007524"
    },
    {
        "id": "133",
        "postalCode": "05017",
        "name": "Kimmel",
        "wilayaId": "5",
        "arName": "كيمل",
        "longitude": "34.9992137",
        "latitude": "6.2208802"
    },
    {
        "id": "134",
        "postalCode": "05018",
        "name": "Tilatou",
        "wilayaId": "5",
        "arName": "تيلاطو",
        "longitude": "35.3131323",
        "latitude": "5.4911366"
    },
    {
        "id": "135",
        "postalCode": "05019",
        "name": "Ain Djasser",
        "wilayaId": "5",
        "arName": "عين جاسر",
        "longitude": "35.8311206",
        "latitude": "5.9331296"
    },
    {
        "id": "136",
        "postalCode": "05020",
        "name": "Ouled Selam",
        "wilayaId": "5",
        "arName": "أولاد سلام",
        "longitude": "35.8457485",
        "latitude": "5.7276937"
    },
    {
        "id": "137",
        "postalCode": "05021",
        "name": "Tigherghar",
        "wilayaId": "5",
        "arName": "تيغرغار",
        "longitude": "35.0765612",
        "latitude": "5.8212842"
    },
    {
        "id": "138",
        "postalCode": "05022",
        "name": "Ain Yagout",
        "wilayaId": "5",
        "arName": "عين ياقوت",
        "longitude": "35.7864482",
        "latitude": "6.2679257"
    },
    {
        "id": "139",
        "postalCode": "05023",
        "name": "Fesdis",
        "wilayaId": "5",
        "arName": "فسديس",
        "longitude": "35.6179227",
        "latitude": "6.1696788"
    },
    {
        "id": "140",
        "postalCode": "05024",
        "name": "Sefiane",
        "wilayaId": "5",
        "arName": "سفيان",
        "longitude": "35.4280853",
        "latitude": "5.5186532"
    },
    {
        "id": "141",
        "postalCode": "05025",
        "name": "Rahbat",
        "wilayaId": "5",
        "arName": "الرحبات",
        "longitude": "35.7257797",
        "latitude": "5.5571911"
    },
    {
        "id": "142",
        "postalCode": "05026",
        "name": "Tighanimine",
        "wilayaId": "5",
        "arName": "تيغانمين",
        "longitude": "35.185829",
        "latitude": "6.2290737"
    },
    {
        "id": "143",
        "postalCode": "05027",
        "name": "Lemsane",
        "wilayaId": "5",
        "arName": "لمسان",
        "longitude": "35.6384911",
        "latitude": "5.7282516"
    },
    {
        "id": "144",
        "postalCode": "05028",
        "name": "Ksar Belezma",
        "wilayaId": "5",
        "arName": "قصر بلازمة",
        "longitude": "35.728729",
        "latitude": "5.8247576"
    },
    {
        "id": "145",
        "postalCode": "05029",
        "name": "Seggana",
        "wilayaId": "5",
        "arName": "سقانة",
        "longitude": "35.3380358",
        "latitude": "5.4071512"
    },
    {
        "id": "146",
        "postalCode": "05030",
        "name": "Ichmoul",
        "wilayaId": "5",
        "arName": "ايشمول",
        "longitude": "35.3059756",
        "latitude": "6.4186737"
    },
    {
        "id": "147",
        "postalCode": "05031",
        "name": "Foum Toub",
        "wilayaId": "5",
        "arName": "فم الطوب",
        "longitude": "35.3867728",
        "latitude": "6.4478348"
    },
    {
        "id": "148",
        "postalCode": "05032",
        "name": "Beni Foudhala El Hakania",
        "wilayaId": "5",
        "arName": "بنى فضالة الحقانية",
        "longitude": "35.3790646",
        "latitude": "5.9300746"
    },
    {
        "id": "149",
        "postalCode": "05033",
        "name": "Oued El Ma",
        "wilayaId": "5",
        "arName": "واد الماء",
        "longitude": "35.6696259",
        "latitude": "5.952935"
    },
    {
        "id": "150",
        "postalCode": "05034",
        "name": "Talkhamt",
        "wilayaId": "5",
        "arName": "تالخمت",
        "longitude": "35.722912",
        "latitude": "5.7070515"
    },
    {
        "id": "151",
        "postalCode": "05035",
        "name": "Bouzina",
        "wilayaId": "5",
        "arName": "بوزينة",
        "longitude": "35.2757765",
        "latitude": "5.9780111"
    },
    {
        "id": "152",
        "postalCode": "05036",
        "name": "Chemora",
        "wilayaId": "5",
        "arName": "الشمرة",
        "longitude": "35.6301185",
        "latitude": "6.4747992"
    },
    {
        "id": "153",
        "postalCode": "05037",
        "name": "Oued Chaaba",
        "wilayaId": "5",
        "arName": "واد الشعبة",
        "longitude": "35.5243377",
        "latitude": "6.011965"
    },
    {
        "id": "154",
        "postalCode": "05038",
        "name": "Taxlent",
        "wilayaId": "5",
        "arName": "تاكسلانت",
        "longitude": "35.5635407",
        "latitude": "5.7388089"
    },
    {
        "id": "155",
        "postalCode": "05039",
        "name": "Gosbat",
        "wilayaId": "5",
        "arName": "القصبات",
        "longitude": "35.6198308",
        "latitude": "5.3394309"
    },
    {
        "id": "156",
        "postalCode": "05040",
        "name": "Ouled Aouf",
        "wilayaId": "5",
        "arName": "أولاد عوف",
        "longitude": "35.4740373",
        "latitude": "5.7172224"
    },
    {
        "id": "157",
        "postalCode": "05041",
        "name": "Boumagueur",
        "wilayaId": "5",
        "arName": "بــومقر",
        "longitude": "35.4973671",
        "latitude": "5.5073234"
    },
    {
        "id": "158",
        "postalCode": "05042",
        "name": "Barika",
        "wilayaId": "5",
        "arName": "بريكة",
        "longitude": "35.3698534",
        "latitude": "5.1424493"
    },
    {
        "id": "159",
        "postalCode": "05043",
        "name": "Djezzar",
        "wilayaId": "5",
        "arName": "الجزار",
        "longitude": "35.5180608",
        "latitude": "5.1947203"
    },
    {
        "id": "160",
        "postalCode": "05044",
        "name": "Tkout",
        "wilayaId": "5",
        "arName": "تكوت",
        "longitude": "35.1533059",
        "latitude": "6.2237014"
    },
    {
        "id": "161",
        "postalCode": "05045",
        "name": "Ain Touta",
        "wilayaId": "5",
        "arName": "عين التوتة",
        "longitude": "35.3640241",
        "latitude": "5.7540788"
    },
    {
        "id": "162",
        "postalCode": "05046",
        "name": "Hidoussa",
        "wilayaId": "5",
        "arName": "حيدوسة",
        "longitude": "35.528608",
        "latitude": "5.7812335"
    },
    {
        "id": "163",
        "postalCode": "05047",
        "name": "Teniet El Abed",
        "wilayaId": "5",
        "arName": "نية العابد",
        "longitude": "35.2869315",
        "latitude": "6.1926387"
    },
    {
        "id": "164",
        "postalCode": "05048",
        "name": "Oued Taga",
        "wilayaId": "5",
        "arName": "وادي الطاقة",
        "longitude": "35.4185955",
        "latitude": "6.2379494"
    },
    {
        "id": "165",
        "postalCode": "05049",
        "name": "Ouled Fadel",
        "wilayaId": "5",
        "arName": "أولاد فاضل",
        "longitude": "35.5552777",
        "latitude": "6.540245"
    },
    {
        "id": "166",
        "postalCode": "05050",
        "name": "Timgad",
        "wilayaId": "5",
        "arName": "تيمقاد",
        "longitude": "35.5269245",
        "latitude": "6.3713303"
    },
    {
        "id": "167",
        "postalCode": "05051",
        "name": "Ras El Aioun",
        "wilayaId": "5",
        "arName": "رأس العيون",
        "longitude": "35.6547596",
        "latitude": "5.5340598"
    },
    {
        "id": "168",
        "postalCode": "05052",
        "name": "Chir",
        "wilayaId": "5",
        "arName": "شير",
        "longitude": "35.218839",
        "latitude": "6.061661"
    },
    {
        "id": "169",
        "postalCode": "05053",
        "name": "Ouled Si Slimane",
        "wilayaId": "5",
        "arName": "أولاد سي سليمان",
        "longitude": "35.5671114",
        "latitude": "5.5504885"
    },
    {
        "id": "170",
        "postalCode": "05054",
        "name": "Zanat El Beida",
        "wilayaId": "5",
        "arName": "زانة البيضاء",
        "longitude": "35.7947074",
        "latitude": "5.9551803"
    },
    {
        "id": "171",
        "postalCode": "05055",
        "name": "M'doukel",
        "wilayaId": "5",
        "arName": "أمدوكال",
        "longitude": "35.1132204",
        "latitude": "5.0064721"
    },
    {
        "id": "172",
        "postalCode": "05056",
        "name": "Ouled Ammar",
        "wilayaId": "5",
        "arName": "أولاد عمار",
        "longitude": "35.4637775",
        "latitude": "5.1226733"
    },
    {
        "id": "173",
        "postalCode": "05057",
        "name": "El Hassi",
        "wilayaId": "5",
        "arName": "الحاسي",
        "longitude": "35.7805122",
        "latitude": "5.8788416"
    },
    {
        "id": "174",
        "postalCode": "05058",
        "name": "Lazrou",
        "wilayaId": "5",
        "arName": "لازرو",
        "longitude": "35.8042574",
        "latitude": "6.2001918"
    },
    {
        "id": "175",
        "postalCode": "05059",
        "name": "Boumia",
        "wilayaId": "5",
        "arName": "بومية",
        "longitude": "35.7041224",
        "latitude": "6.3963578"
    },
    {
        "id": "176",
        "postalCode": "05060",
        "name": "Boulhilat",
        "wilayaId": "5",
        "arName": "بولهيلات",
        "longitude": "35.7374798",
        "latitude": "6.5889619"
    },
    {
        "id": "177",
        "postalCode": "05061",
        "name": "Larbaa",
        "wilayaId": "5",
        "arName": "الاربعاء",
        "longitude": "36.5787079",
        "latitude": "3.103324"
    },
    {
        "id": "178",
        "postalCode": "06001",
        "name": "Bejaia",
        "wilayaId": "6",
        "arName": "بجاية",
        "longitude": "36.7695763",
        "latitude": "4.938545"
    },
    {
        "id": "179",
        "postalCode": "06002",
        "name": "Amizour",
        "wilayaId": "6",
        "arName": "اميزور",
        "longitude": "36.6429158",
        "latitude": "4.8679708"
    },
    {
        "id": "180",
        "postalCode": "06003",
        "name": "Ferraoun",
        "wilayaId": "6",
        "arName": "فرعون",
        "longitude": "36.5654312",
        "latitude": "4.8417715"
    },
    {
        "id": "181",
        "postalCode": "06004",
        "name": "Taourirt Ighil",
        "wilayaId": "6",
        "arName": "تاوريرت اغيل",
        "longitude": "36.7329317",
        "latitude": "4.6709356"
    },
    {
        "id": "182",
        "postalCode": "06005",
        "name": "Chelata",
        "wilayaId": "6",
        "arName": "شلاطة",
        "longitude": "36.5079843",
        "latitude": "4.4892072"
    },
    {
        "id": "183",
        "postalCode": "06006",
        "name": "Tamokra",
        "wilayaId": "6",
        "arName": "تامقرة",
        "longitude": "36.3916342",
        "latitude": "4.5814411"
    },
    {
        "id": "184",
        "postalCode": "06007",
        "name": "Timzrit",
        "wilayaId": "6",
        "arName": "تيمزريت",
        "longitude": "36.6161452",
        "latitude": "4.7342109"
    },
    {
        "id": "185",
        "postalCode": "06008",
        "name": "Souk El Thenine",
        "wilayaId": "6",
        "arName": "ﺳﻮق اﻻﺛﻨﻴﻦ",
        "longitude": "36.6150269",
        "latitude": "5.2777913"
    },
    {
        "id": "186",
        "postalCode": "06009",
        "name": "M'cisna",
        "wilayaId": "6",
        "arName": "مسيسنة",
        "longitude": "36.5646521",
        "latitude": "4.6922142"
    },
    {
        "id": "187",
        "postalCode": "06010",
        "name": "Thinabdher",
        "wilayaId": "6",
        "arName": "تينبذار",
        "longitude": "36.6333952",
        "latitude": "4.6645332"
    },
    {
        "id": "188",
        "postalCode": "06011",
        "name": "Tichi",
        "wilayaId": "6",
        "arName": "تيشي",
        "longitude": "36.620329",
        "latitude": "5.0944646"
    },
    {
        "id": "189",
        "postalCode": "06012",
        "name": "Semaoun",
        "wilayaId": "6",
        "arName": "سمعون",
        "longitude": "36.6163121",
        "latitude": "4.8029022"
    },
    {
        "id": "190",
        "postalCode": "06013",
        "name": "Kendira",
        "wilayaId": "6",
        "arName": "كنديرة",
        "longitude": "36.5568449",
        "latitude": "4.948437"
    },
    {
        "id": "191",
        "postalCode": "06014",
        "name": "Tifra",
        "wilayaId": "6",
        "arName": "تيفرة",
        "longitude": "36.6626768",
        "latitude": "4.6505501"
    },
    {
        "id": "192",
        "postalCode": "06015",
        "name": "Ighram",
        "wilayaId": "6",
        "arName": "إغرم",
        "longitude": "36.4765457",
        "latitude": "4.3924687"
    },
    {
        "id": "193",
        "postalCode": "06016",
        "name": "Amalou",
        "wilayaId": "6",
        "arName": "امالو",
        "longitude": "36.4780606",
        "latitude": "4.5674507"
    },
    {
        "id": "194",
        "postalCode": "06017",
        "name": "Ighil Ali",
        "wilayaId": "6",
        "arName": "إغيل على",
        "longitude": "36.2905404",
        "latitude": "4.4345472"
    },
    {
        "id": "195",
        "postalCode": "06018",
        "name": "Ifelain Ilmathen",
        "wilayaId": "6",
        "arName": "افناين الماثن",
        "longitude": "36.6673126",
        "latitude": "4.7479832"
    },
    {
        "id": "196",
        "postalCode": "06019",
        "name": "Toudja",
        "wilayaId": "6",
        "arName": "توجة",
        "longitude": "36.7862498",
        "latitude": "4.7209914"
    },
    {
        "id": "197",
        "postalCode": "06020",
        "name": "Darguina",
        "wilayaId": "6",
        "arName": "درقينة",
        "longitude": "36.5537403",
        "latitude": "5.3057073"
    },
    {
        "id": "198",
        "postalCode": "06021",
        "name": "Sidi Ayad",
        "wilayaId": "6",
        "arName": "سيدي عياد",
        "longitude": "36.6095992",
        "latitude": "4.6956681"
    },
    {
        "id": "199",
        "postalCode": "06022",
        "name": "Aokas",
        "wilayaId": "6",
        "arName": "أوقاس",
        "longitude": "36.6195851",
        "latitude": "5.2038174"
    },
    {
        "id": "200",
        "postalCode": "06023",
        "name": "Ait Djellil",
        "wilayaId": "6",
        "arName": "آيث جليل",
        "longitude": "36.5626795",
        "latitude": "4.7643966"
    },
    {
        "id": "201",
        "postalCode": "06024",
        "name": "Adekar",
        "wilayaId": "6",
        "arName": "آدكار",
        "longitude": "36.7343709",
        "latitude": "4.5420287"
    },
    {
        "id": "202",
        "postalCode": "06025",
        "name": "Akbou",
        "wilayaId": "6",
        "arName": "أقبو",
        "longitude": "36.4583204",
        "latitude": "4.4639658"
    },
    {
        "id": "203",
        "postalCode": "06026",
        "name": "Seddouk",
        "wilayaId": "6",
        "arName": "صدوق",
        "longitude": "36.5367869",
        "latitude": "4.6409049"
    },
    {
        "id": "204",
        "postalCode": "06027",
        "name": "Tazmalt",
        "wilayaId": "6",
        "arName": "تازمالت",
        "longitude": "36.3980947",
        "latitude": "4.3892305"
    },
    {
        "id": "205",
        "postalCode": "06028",
        "name": "Ait R'zine",
        "wilayaId": "6",
        "arName": "آيت أرزين",
        "longitude": "36.3866561",
        "latitude": "4.4646094"
    },
    {
        "id": "206",
        "postalCode": "06029",
        "name": "Chemini",
        "wilayaId": "6",
        "arName": "شميني",
        "longitude": "36.5928345",
        "latitude": "4.5601731"
    },
    {
        "id": "207",
        "postalCode": "06030",
        "name": "Souk Oufella",
        "wilayaId": "6",
        "arName": "سوق أوفلة",
        "longitude": "36.5880436",
        "latitude": "4.5992053"
    },
    {
        "id": "208",
        "postalCode": "06031",
        "name": "Taskriout",
        "wilayaId": "6",
        "arName": "تاسقريوت",
        "longitude": "36.5565707",
        "latitude": "5.2237624"
    },
    {
        "id": "209",
        "postalCode": "06032",
        "name": "Tibane",
        "wilayaId": "6",
        "arName": "طيبان",
        "longitude": "36.6131706",
        "latitude": "4.6360841"
    },
    {
        "id": "210",
        "postalCode": "06033",
        "name": "Tala Hamza",
        "wilayaId": "6",
        "arName": "ثالة حمزة",
        "longitude": "36.6904609",
        "latitude": "4.9432228"
    },
    {
        "id": "211",
        "postalCode": "06034",
        "name": "Barbacha",
        "wilayaId": "6",
        "arName": "برباشة",
        "longitude": "36.5628189",
        "latitude": "4.8862205"
    },
    {
        "id": "212",
        "postalCode": "06035",
        "name": "Beni Ksila",
        "wilayaId": "6",
        "arName": "بنى كسيلة",
        "longitude": "36.8280602",
        "latitude": "4.6309708"
    },
    {
        "id": "213",
        "postalCode": "06036",
        "name": "Ouzallaguen",
        "wilayaId": "6",
        "arName": "أوزلاقن",
        "longitude": "36.5473904",
        "latitude": "4.5075207"
    },
    {
        "id": "214",
        "postalCode": "06037",
        "name": "Bouhamza",
        "wilayaId": "6",
        "arName": "بوحمزة",
        "longitude": "36.4393229",
        "latitude": "4.5700544"
    },
    {
        "id": "215",
        "postalCode": "06038",
        "name": "Beni Melikeche",
        "wilayaId": "6",
        "arName": "بنى مليكش",
        "longitude": "36.4475154",
        "latitude": "4.3846601"
    },
    {
        "id": "216",
        "postalCode": "06039",
        "name": "Sidi Aich",
        "wilayaId": "6",
        "arName": "سيدي عيش",
        "longitude": "36.6223093",
        "latitude": "4.6792592"
    },
    {
        "id": "217",
        "postalCode": "06040",
        "name": "El Kseur",
        "wilayaId": "6",
        "arName": "القصر",
        "longitude": "36.7187382",
        "latitude": "4.7678254"
    },
    {
        "id": "218",
        "postalCode": "06041",
        "name": "Melbou",
        "wilayaId": "6",
        "arName": "ملبو",
        "longitude": "36.6217049",
        "latitude": "5.351135"
    },
    {
        "id": "219",
        "postalCode": "06042",
        "name": "Akfadou",
        "wilayaId": "6",
        "arName": "اكفادو",
        "longitude": "36.6580416",
        "latitude": "4.5747965"
    },
    {
        "id": "220",
        "postalCode": "06043",
        "name": "Leflaye",
        "wilayaId": "6",
        "arName": "لفلاى",
        "longitude": "36.597995",
        "latitude": "4.6441959"
    },
    {
        "id": "221",
        "postalCode": "06044",
        "name": "Kherrata",
        "wilayaId": "6",
        "arName": "خراطة",
        "longitude": "36.4719307",
        "latitude": "5.2047107"
    },
    {
        "id": "222",
        "postalCode": "06045",
        "name": "Draa Kaid",
        "wilayaId": "6",
        "arName": "ذراع القايد",
        "longitude": "36.4405974",
        "latitude": "5.168301"
    },
    {
        "id": "223",
        "postalCode": "06046",
        "name": "Tamridjet",
        "wilayaId": "6",
        "arName": "تامريجت",
        "longitude": "36.5729424",
        "latitude": "5.3775099"
    },
    {
        "id": "224",
        "postalCode": "06047",
        "name": "Ait Smail",
        "wilayaId": "6",
        "arName": "آيت سماعيل",
        "longitude": "36.554314",
        "latitude": "5.1892262"
    },
    {
        "id": "225",
        "postalCode": "06048",
        "name": "Boukhelifa",
        "wilayaId": "6",
        "arName": "بوخليفة",
        "longitude": "36.6367939",
        "latitude": "5.0058926"
    },
    {
        "id": "226",
        "postalCode": "06049",
        "name": "Tizi N'berber",
        "wilayaId": "6",
        "arName": "تيزى نبربر",
        "longitude": "36.5899196",
        "latitude": "5.1307333"
    },
    {
        "id": "227",
        "postalCode": "06050",
        "name": "Beni Maouch",
        "wilayaId": "6",
        "arName": "بني معوش",
        "longitude": "36.4881459",
        "latitude": "4.72105"
    },
    {
        "id": "228",
        "postalCode": "06051",
        "name": "Oued Ghir",
        "wilayaId": "6",
        "arName": "وادي غير",
        "longitude": "36.7149207",
        "latitude": "4.9085928"
    },
    {
        "id": "229",
        "postalCode": "06052",
        "name": "Boudjellil",
        "wilayaId": "6",
        "arName": "بوجليل",
        "longitude": "36.3223972",
        "latitude": "4.3477724"
    },
    {
        "id": "230",
        "postalCode": "07001",
        "name": "Biskra",
        "wilayaId": "7",
        "arName": "بسكرة",
        "longitude": "34.851484",
        "latitude": "5.6546304"
    },
    {
        "id": "231",
        "postalCode": "07002",
        "name": "Oumache",
        "wilayaId": "7",
        "arName": "أوماش",
        "longitude": "34.586303",
        "latitude": "5.5181413"
    },
    {
        "id": "232",
        "postalCode": "07003",
        "name": "Branis",
        "wilayaId": "7",
        "arName": "البرانس",
        "longitude": "34.9709574",
        "latitude": "5.6412543"
    },
    {
        "id": "233",
        "postalCode": "07004",
        "name": "Chetma",
        "wilayaId": "7",
        "arName": "شتمة",
        "longitude": "34.8655388",
        "latitude": "5.7729266"
    },
    {
        "id": "234",
        "postalCode": "07005",
        "name": "Ouled Djellal",
        "wilayaId": "7",
        "arName": "أولاد جلال",
        "longitude": "34.4174639",
        "latitude": "4.9713028"
    },
    {
        "id": "235",
        "postalCode": "07006",
        "name": "Ras El Miaad",
        "wilayaId": "7",
        "arName": "راس الميعاد",
        "longitude": "34.0268001",
        "latitude": "4.1596986"
    },
    {
        "id": "236",
        "postalCode": "07007",
        "name": "Besbes",
        "wilayaId": "7",
        "arName": "البسباس",
        "longitude": "36.7204026",
        "latitude": "7.7544139"
    },
    {
        "id": "237",
        "postalCode": "07008",
        "name": "Sidi Khaled",
        "wilayaId": "7",
        "arName": "سيدي خالد",
        "longitude": "34.3845588",
        "latitude": "4.8400248"
    },
    {
        "id": "238",
        "postalCode": "07009",
        "name": "Doucen",
        "wilayaId": "7",
        "arName": "الدوسن",
        "longitude": "34.6197821",
        "latitude": "4.9863232"
    },
    {
        "id": "239",
        "postalCode": "07010",
        "name": "Ech Chaiba",
        "wilayaId": "7",
        "arName": "أولاد رحمة",
        "longitude": "34.6257746",
        "latitude": "4.5572238"
    },
    {
        "id": "240",
        "postalCode": "07011",
        "name": "Sidi Okba",
        "wilayaId": "7",
        "arName": "سيدي عقبة",
        "longitude": "34.776526",
        "latitude": "5.8344242"
    },
    {
        "id": "241",
        "postalCode": "07012",
        "name": "Mchouneche",
        "wilayaId": "7",
        "arName": "مشونش",
        "longitude": "34.9063847",
        "latitude": "5.8993044"
    },
    {
        "id": "242",
        "postalCode": "07013",
        "name": "El Haouch",
        "wilayaId": "7",
        "arName": "الحوش",
        "longitude": "34.5603287",
        "latitude": "5.8852281"
    },
    {
        "id": "243",
        "postalCode": "07014",
        "name": "Ain Naga",
        "wilayaId": "7",
        "arName": "عين الناقة",
        "longitude": "34.6508231",
        "latitude": "6.0189093"
    },
    {
        "id": "244",
        "postalCode": "07015",
        "name": "Zeribet El Oued",
        "wilayaId": "7",
        "arName": "زريبة الوادي",
        "longitude": "34.683456",
        "latitude": "6.3748921"
    },
    {
        "id": "245",
        "postalCode": "07016",
        "name": "El Feidh",
        "wilayaId": "7",
        "arName": "الفيض",
        "longitude": "34.4990192",
        "latitude": "6.1924699"
    },
    {
        "id": "246",
        "postalCode": "07017",
        "name": "El Kantara",
        "wilayaId": "7",
        "arName": "القنطرة",
        "longitude": "35.2052532",
        "latitude": "5.5062642"
    },
    {
        "id": "247",
        "postalCode": "07018",
        "name": "Ain Zaatout",
        "wilayaId": "7",
        "arName": "عين زعطوط",
        "longitude": "35.1705188",
        "latitude": "5.7860157"
    },
    {
        "id": "248",
        "postalCode": "07019",
        "name": "El Outaya",
        "wilayaId": "7",
        "arName": "لوطاية",
        "longitude": "34.9772883",
        "latitude": "5.4401959"
    },
    {
        "id": "249",
        "postalCode": "07020",
        "name": "Djemorah",
        "wilayaId": "7",
        "arName": "جمورة",
        "longitude": "35.0989288",
        "latitude": "5.6954643"
    },
    {
        "id": "250",
        "postalCode": "07021",
        "name": "Tolga",
        "wilayaId": "7",
        "arName": "طولقة",
        "longitude": "34.894129",
        "latitude": "4.9483543"
    },
    {
        "id": "251",
        "postalCode": "07022",
        "name": "Lioua",
        "wilayaId": "7",
        "arName": "لواء",
        "longitude": "34.5726359",
        "latitude": "5.224675"
    },
    {
        "id": "252",
        "postalCode": "07023",
        "name": "Lichana",
        "wilayaId": "7",
        "arName": "لشانة",
        "longitude": "34.7379403",
        "latitude": "5.3672479"
    },
    {
        "id": "253",
        "postalCode": "07024",
        "name": "Ourlal",
        "wilayaId": "7",
        "arName": "أورلال",
        "longitude": "34.563429",
        "latitude": "5.3748787"
    },
    {
        "id": "254",
        "postalCode": "07025",
        "name": "M'lili",
        "wilayaId": "7",
        "arName": "مليلي",
        "longitude": "34.5781616",
        "latitude": "5.4617608"
    },
    {
        "id": "255",
        "postalCode": "07026",
        "name": "Foughala",
        "wilayaId": "7",
        "arName": "فوغالة",
        "longitude": "34.7598362",
        "latitude": "5.2212069"
    },
    {
        "id": "256",
        "postalCode": "07027",
        "name": "Bordj Ben Azzouz",
        "wilayaId": "7",
        "arName": "برج بن عزوز",
        "longitude": "34.7281944",
        "latitude": "5.281975"
    },
    {
        "id": "257",
        "postalCode": "07028",
        "name": "M'ziraa",
        "wilayaId": "7",
        "arName": "مزيرعة",
        "longitude": "34.8853471",
        "latitude": "6.0060458"
    },
    {
        "id": "258",
        "postalCode": "07029",
        "name": "Bouchagroun",
        "wilayaId": "7",
        "arName": "بوشقرون",
        "longitude": "34.7378859",
        "latitude": "5.4169652"
    },
    {
        "id": "259",
        "postalCode": "07030",
        "name": "Mekhadma",
        "wilayaId": "7",
        "arName": "مخادمة",
        "longitude": "34.5636943",
        "latitude": "5.3092183"
    },
    {
        "id": "260",
        "postalCode": "07031",
        "name": "El Ghrous",
        "wilayaId": "7",
        "arName": "الغروس",
        "longitude": "34.7175474",
        "latitude": "5.0903931"
    },
    {
        "id": "261",
        "postalCode": "07032",
        "name": "El Hadjab",
        "wilayaId": "7",
        "arName": "الحاجب",
        "longitude": "34.7967888",
        "latitude": "5.4551949"
    },
    {
        "id": "262",
        "postalCode": "07033",
        "name": "Khanguet Sidinadji",
        "wilayaId": "7",
        "arName": "خنڨة سيدي ناجي",
        "longitude": "34.784537",
        "latitude": "6.6327354"
    },
    {
        "id": "263",
        "postalCode": "08001",
        "name": "Bechar",
        "wilayaId": "8",
        "arName": "بشار",
        "longitude": "31.5965368",
        "latitude": "-2.4145248"
    },
    {
        "id": "264",
        "postalCode": "08002",
        "name": "Erg Ferradj",
        "wilayaId": "8",
        "arName": "عرق فراج",
        "longitude": "31.0835905",
        "latitude": "-2.8630916"
    },
    {
        "id": "265",
        "postalCode": "08003",
        "name": "Ouled Khoudir",
        "wilayaId": "8",
        "arName": "أولاد خدير",
        "longitude": "29.2558699",
        "latitude": "-1.0641503"
    },
    {
        "id": "266",
        "postalCode": "08004",
        "name": "Meridja",
        "wilayaId": "8",
        "arName": "مريجة",
        "longitude": "31.5494045",
        "latitude": "-2.95583"
    },
    {
        "id": "267",
        "postalCode": "08005",
        "name": "Timoudi",
        "wilayaId": "8",
        "arName": "تيمودى",
        "longitude": "29.3195526",
        "latitude": "-1.135803"
    },
    {
        "id": "268",
        "postalCode": "08006",
        "name": "Lahmar",
        "wilayaId": "8",
        "arName": "لحمر",
        "longitude": "31.9312184",
        "latitude": "-2.2681563"
    },
    {
        "id": "269",
        "postalCode": "08007",
        "name": "Beni Abbes",
        "wilayaId": "8",
        "arName": "بني عباس",
        "longitude": "30.1302299",
        "latitude": "-2.1782542"
    },
    {
        "id": "270",
        "postalCode": "08008",
        "name": "Beni Ikhlef",
        "wilayaId": "8",
        "arName": "بني يخلف",
        "longitude": "29.5802183",
        "latitude": "-1.6128088"
    },
    {
        "id": "271",
        "postalCode": "08009",
        "name": "Mechraa Houari Boumedienne",
        "wilayaId": "8",
        "arName": "مشرع ھوارى بومدين",
        "longitude": "30.9318258",
        "latitude": "-2.741164"
    },
    {
        "id": "272",
        "postalCode": "08010",
        "name": "Kenedsa",
        "wilayaId": "8",
        "arName": "القنادسة",
        "longitude": "31.5570599",
        "latitude": "-2.4381801"
    },
    {
        "id": "273",
        "postalCode": "08011",
        "name": "Igli",
        "wilayaId": "8",
        "arName": "إقلي",
        "longitude": "30.452849",
        "latitude": "-2.3000801"
    },
    {
        "id": "274",
        "postalCode": "08012",
        "name": "Tabalbala",
        "wilayaId": "8",
        "arName": "تبلبالة",
        "longitude": "28.9735664",
        "latitude": "-5.9957642"
    },
    {
        "id": "275",
        "postalCode": "08013",
        "name": "Taghit",
        "wilayaId": "8",
        "arName": "تــــاغـيــث",
        "longitude": "30.9150725",
        "latitude": "-2.0472123"
    },
    {
        "id": "276",
        "postalCode": "08014",
        "name": "El Ouata",
        "wilayaId": "8",
        "arName": "الوطى",
        "longitude": "29.854111",
        "latitude": "-1.8650158"
    },
    {
        "id": "277",
        "postalCode": "08015",
        "name": "Boukais",
        "wilayaId": "8",
        "arName": "بوكايس",
        "longitude": "31.9230182",
        "latitude": "-2.4714058"
    },
    {
        "id": "278",
        "postalCode": "08016",
        "name": "Mogheul",
        "wilayaId": "8",
        "arName": "موغل",
        "longitude": "32.0219943",
        "latitude": "-2.2227252"
    },
    {
        "id": "279",
        "postalCode": "08017",
        "name": "Abadla",
        "wilayaId": "8",
        "arName": "العبادلة",
        "longitude": "31.0174866",
        "latitude": "-2.7615494"
    },
    {
        "id": "280",
        "postalCode": "08018",
        "name": "Kerzaz",
        "wilayaId": "8",
        "arName": "كرزاز",
        "longitude": "29.4602231",
        "latitude": "-1.4553024"
    },
    {
        "id": "281",
        "postalCode": "08019",
        "name": "Ksabi",
        "wilayaId": "8",
        "arName": "قصابى",
        "longitude": "29.0984238",
        "latitude": "-1.0022456"
    },
    {
        "id": "282",
        "postalCode": "08020",
        "name": "Tamtert",
        "wilayaId": "8",
        "arName": "تامترت",
        "longitude": "29.9166662",
        "latitude": "-1.9087548"
    },
    {
        "id": "283",
        "postalCode": "08021",
        "name": "Beni Ounif",
        "wilayaId": "8",
        "arName": "بني ونيف",
        "longitude": "32.0512638",
        "latitude": "-1.2519046"
    },
    {
        "id": "284",
        "postalCode": "09001",
        "name": "Blida",
        "wilayaId": "9",
        "arName": "البليدة‎",
        "longitude": "36.4802972",
        "latitude": "2.7659184"
    },
    {
        "id": "285",
        "postalCode": "09002",
        "name": "Chebli",
        "wilayaId": "9",
        "arName": "الشبلي",
        "longitude": "36.5685763",
        "latitude": "2.9433463"
    },
    {
        "id": "286",
        "postalCode": "09003",
        "name": "Bouinan",
        "wilayaId": "9",
        "arName": "بوعينان",
        "longitude": "36.5154839",
        "latitude": "2.9218243"
    },
    {
        "id": "287",
        "postalCode": "09004",
        "name": "Oued El Alleug",
        "wilayaId": "9",
        "arName": "واد العلايڨ",
        "longitude": "36.5502875",
        "latitude": "2.7026126"
    },
    {
        "id": "288",
        "postalCode": "09007",
        "name": "Ouled Yaich",
        "wilayaId": "9",
        "arName": "اولاد يعيش",
        "longitude": "36.4852123",
        "latitude": "2.8325741"
    },
    {
        "id": "289",
        "postalCode": "09008",
        "name": "Chrea",
        "wilayaId": "9",
        "arName": "الشريعة",
        "longitude": "36.4254896",
        "latitude": "2.8286336"
    },
    {
        "id": "290",
        "postalCode": "09010",
        "name": "El Affroun",
        "wilayaId": "9",
        "arName": "العفرون",
        "longitude": "36.4460675",
        "latitude": "2.5382873"
    },
    {
        "id": "291",
        "postalCode": "09011",
        "name": "Chiffa",
        "wilayaId": "9",
        "arName": "الشفة",
        "longitude": "36.444398",
        "latitude": "2.6691173"
    },
    {
        "id": "292",
        "postalCode": "09012",
        "name": "Hammam Melouane",
        "wilayaId": "9",
        "arName": "حمام ملوان",
        "longitude": "36.436102",
        "latitude": "2.8604689"
    },
    {
        "id": "293",
        "postalCode": "09013",
        "name": "Ben Khlil",
        "wilayaId": "9",
        "arName": "بني خليل",
        "longitude": "36.5959588",
        "latitude": "2.7838729"
    },
    {
        "id": "294",
        "postalCode": "09014",
        "name": "Soumaa",
        "wilayaId": "9",
        "arName": "صومعة",
        "longitude": "36.507015",
        "latitude": "2.8509281"
    },
    {
        "id": "295",
        "postalCode": "09016",
        "name": "Mouzaia",
        "wilayaId": "9",
        "arName": "موزاية",
        "longitude": "36.50497",
        "latitude": "2.6139932"
    },
    {
        "id": "296",
        "postalCode": "09017",
        "name": "Souhane",
        "wilayaId": "9",
        "arName": "صوحان",
        "longitude": "36.5263305",
        "latitude": "3.1705831"
    },
    {
        "id": "297",
        "postalCode": "09018",
        "name": "Meftah",
        "wilayaId": "9",
        "arName": "مفتاح",
        "longitude": "36.6238272",
        "latitude": "3.1711838"
    },
    {
        "id": "298",
        "postalCode": "09019",
        "name": "Ouled Selama",
        "wilayaId": "9",
        "arName": "أولاد سلامة",
        "longitude": "36.514057",
        "latitude": "3.0705904"
    },
    {
        "id": "299",
        "postalCode": "09020",
        "name": "Boufarik",
        "wilayaId": "9",
        "arName": "بوفاريك",
        "longitude": "36.5739581",
        "latitude": "2.8478167"
    },
    {
        "id": "300",
        "postalCode": "09021",
        "name": "Larbaa",
        "wilayaId": "9",
        "arName": "الاربعاء",
        "longitude": "36.5787079",
        "latitude": "3.103324"
    },
    {
        "id": "301",
        "postalCode": "09022",
        "name": "Oued Djer",
        "wilayaId": "9",
        "arName": "واد جر",
        "longitude": "36.4223526",
        "latitude": "2.4657911"
    },
    {
        "id": "302",
        "postalCode": "09023",
        "name": "Beni Tamou",
        "wilayaId": "9",
        "arName": "بني تامو",
        "longitude": "36.5401306",
        "latitude": "2.7729529"
    },
    {
        "id": "303",
        "postalCode": "09024",
        "name": "Bouarfa",
        "wilayaId": "9",
        "arName": "بوعرفة",
        "longitude": "36.4151693",
        "latitude": "2.7284692"
    },
    {
        "id": "304",
        "postalCode": "09025",
        "name": "Beni Mered",
        "wilayaId": "9",
        "arName": "بني مراد",
        "longitude": "36.5327654",
        "latitude": "2.8198593"
    },
    {
        "id": "305",
        "postalCode": "09026",
        "name": "Bougara",
        "wilayaId": "9",
        "arName": "بوڨرة",
        "longitude": "36.4936597",
        "latitude": "2.9731862"
    },
    {
        "id": "306",
        "postalCode": "09027",
        "name": "Guerrouaou",
        "wilayaId": "9",
        "arName": "ڨرواو",
        "longitude": "36.5019935",
        "latitude": "2.8148899"
    },
    {
        "id": "307",
        "postalCode": "09028",
        "name": "Ain Romana",
        "wilayaId": "9",
        "arName": "عين الرمانة",
        "longitude": "36.3875985",
        "latitude": "2.5722144"
    },
    {
        "id": "308",
        "postalCode": "09029",
        "name": "Djebabra",
        "wilayaId": "9",
        "arName": "جبابرة",
        "longitude": "36.5803885",
        "latitude": "3.2252592"
    },
    {
        "id": "309",
        "postalCode": "10001",
        "name": "Bouira",
        "wilayaId": "10",
        "arName": "البويرة",
        "longitude": "36.3728066",
        "latitude": "3.8350413"
    },
    {
        "id": "310",
        "postalCode": "10002",
        "name": "El Asnam",
        "wilayaId": "10",
        "arName": "الأصنام",
        "longitude": "36.3709809",
        "latitude": "3.8941923"
    },
    {
        "id": "311",
        "postalCode": "10003",
        "name": "Guerrouma",
        "wilayaId": "10",
        "arName": "قرومة",
        "longitude": "36.4678041",
        "latitude": "3.3603546"
    },
    {
        "id": "312",
        "postalCode": "10004",
        "name": "Souk El Khemis",
        "wilayaId": "10",
        "arName": "سوق الخميس",
        "longitude": "36.3941664",
        "latitude": "3.5550187"
    },
    {
        "id": "313",
        "postalCode": "10005",
        "name": "Kadiria",
        "wilayaId": "10",
        "arName": "قادرية",
        "longitude": "36.5253163",
        "latitude": "3.5963676"
    },
    {
        "id": "314",
        "postalCode": "10006",
        "name": "Hanif",
        "wilayaId": "10",
        "arName": "احنيف",
        "longitude": "36.2632628",
        "latitude": "4.0687934"
    },
    {
        "id": "315",
        "postalCode": "10007",
        "name": "Dirah",
        "wilayaId": "10",
        "arName": "ديــرة",
        "longitude": "36.0038981",
        "latitude": "3.5835066"
    },
    {
        "id": "316",
        "postalCode": "10008",
        "name": "Ait Laaziz",
        "wilayaId": "10",
        "arName": "آيت لعزيز",
        "longitude": "36.4453381",
        "latitude": "3.8484757"
    },
    {
        "id": "317",
        "postalCode": "10009",
        "name": "Taghzout",
        "wilayaId": "10",
        "arName": "تاغزوت",
        "longitude": "36.4161178",
        "latitude": "3.9036414"
    },
    {
        "id": "318",
        "postalCode": "10010",
        "name": "Raouraoua",
        "wilayaId": "10",
        "arName": "الروراوة",
        "longitude": "36.2168126",
        "latitude": "3.5492681"
    },
    {
        "id": "319",
        "postalCode": "10011",
        "name": "Mezdour",
        "wilayaId": "10",
        "arName": "مسدور",
        "longitude": "36.0722819",
        "latitude": "3.923954"
    },
    {
        "id": "320",
        "postalCode": "10012",
        "name": "Haizer",
        "wilayaId": "10",
        "arName": "حيزر",
        "longitude": "36.4068708",
        "latitude": "3.9487242"
    },
    {
        "id": "321",
        "postalCode": "10013",
        "name": "Lakhdaria",
        "wilayaId": "10",
        "arName": "الأخضرية",
        "longitude": "36.5613265",
        "latitude": "3.5173819"
    },
    {
        "id": "322",
        "postalCode": "10014",
        "name": "Maala",
        "wilayaId": "10",
        "arName": "معالة",
        "longitude": "36.4945576",
        "latitude": "3.4880279"
    },
    {
        "id": "323",
        "postalCode": "10015",
        "name": "El Hachimia",
        "wilayaId": "10",
        "arName": "الھاشمية",
        "longitude": "36.2227385",
        "latitude": "3.7198058"
    },
    {
        "id": "324",
        "postalCode": "10016",
        "name": "Aomar",
        "wilayaId": "10",
        "arName": "أعمر",
        "longitude": "36.5022135",
        "latitude": "3.7122176"
    },
    {
        "id": "325",
        "postalCode": "10017",
        "name": "Chorfa",
        "wilayaId": "10",
        "arName": "الشرفاء",
        "longitude": "36.3782491",
        "latitude": "4.3082238"
    },
    {
        "id": "326",
        "postalCode": "10018",
        "name": "Bordj Oukhriss",
        "wilayaId": "10",
        "arName": "برج أوخريص",
        "longitude": "36.09281",
        "latitude": "3.8468001"
    },
    {
        "id": "327",
        "postalCode": "10019",
        "name": "El Adjiba",
        "wilayaId": "10",
        "arName": "العجيبة",
        "longitude": "36.3723036",
        "latitude": "4.0139476"
    },
    {
        "id": "328",
        "postalCode": "10020",
        "name": "El Hakimia",
        "wilayaId": "10",
        "arName": "الحاكمية",
        "longitude": "36.0907204",
        "latitude": "3.72668"
    },
    {
        "id": "329",
        "postalCode": "10021",
        "name": "El Khebouzia",
        "wilayaId": "10",
        "arName": "الخبوزية",
        "longitude": "36.3091266",
        "latitude": "3.5599129"
    },
    {
        "id": "330",
        "postalCode": "10022",
        "name": "Ahl El Ksar",
        "wilayaId": "10",
        "arName": "أھل القصر",
        "longitude": "36.2426022",
        "latitude": "3.9606117"
    },
    {
        "id": "331",
        "postalCode": "10023",
        "name": "Bouderbala",
        "wilayaId": "10",
        "arName": "بودربالة",
        "longitude": "36.5662885",
        "latitude": "3.4137415"
    },
    {
        "id": "332",
        "postalCode": "10024",
        "name": "Zbarbar",
        "wilayaId": "10",
        "arName": "زبربر",
        "longitude": "36.4732903",
        "latitude": "3.4459708"
    },
    {
        "id": "333",
        "postalCode": "10025",
        "name": "Ain El Hadjar",
        "wilayaId": "10",
        "arName": "عين الحجر",
        "longitude": "36.3598252",
        "latitude": "3.7160585"
    },
    {
        "id": "334",
        "postalCode": "10026",
        "name": "Djebahia",
        "wilayaId": "10",
        "arName": "الجباحية",
        "longitude": "36.4603324",
        "latitude": "3.6520932"
    },
    {
        "id": "335",
        "postalCode": "10027",
        "name": "Aghbalou",
        "wilayaId": "10",
        "arName": "أغبالو",
        "longitude": "36.4259787",
        "latitude": "4.2679284"
    },
    {
        "id": "336",
        "postalCode": "10028",
        "name": "Taguedit",
        "wilayaId": "10",
        "arName": "تاڨديت",
        "longitude": "35.9534858",
        "latitude": "3.7969676"
    },
    {
        "id": "337",
        "postalCode": "10029",
        "name": "Ain Turk",
        "wilayaId": "10",
        "arName": "عين الترك",
        "longitude": "36.4049144",
        "latitude": "3.7447465"
    },
    {
        "id": "338",
        "postalCode": "10030",
        "name": "Saharidj",
        "wilayaId": "10",
        "arName": "الصهاريج",
        "longitude": "36.4310532",
        "latitude": "4.1825268"
    },
    {
        "id": "339",
        "postalCode": "10031",
        "name": "Dechmia",
        "wilayaId": "10",
        "arName": "الدشمية",
        "longitude": "36.1366443",
        "latitude": "3.5034345"
    },
    {
        "id": "340",
        "postalCode": "10032",
        "name": "Ridane",
        "wilayaId": "10",
        "arName": "ريدان",
        "longitude": "36.0701573",
        "latitude": "3.399751"
    },
    {
        "id": "341",
        "postalCode": "10033",
        "name": "Bechloul",
        "wilayaId": "10",
        "arName": "بشلول",
        "longitude": "36.3745093",
        "latitude": "3.9607305"
    },
    {
        "id": "342",
        "postalCode": "10034",
        "name": "Boukram",
        "wilayaId": "10",
        "arName": "بوكرام",
        "longitude": "36.5178782",
        "latitude": "3.2987712"
    },
    {
        "id": "343",
        "postalCode": "10035",
        "name": "Ain Bessam",
        "wilayaId": "10",
        "arName": "عين بسام",
        "longitude": "36.3364461",
        "latitude": "3.5562554"
    },
    {
        "id": "344",
        "postalCode": "10036",
        "name": "Bir Ghbalou",
        "wilayaId": "10",
        "arName": "بئر غبالو",
        "longitude": "36.268461",
        "latitude": "3.5073827"
    },
    {
        "id": "345",
        "postalCode": "10037",
        "name": "Mchedallah",
        "wilayaId": "10",
        "arName": "مشدا الله",
        "longitude": "36.3633061",
        "latitude": "4.1871831"
    },
    {
        "id": "346",
        "postalCode": "10038",
        "name": "Sour El Ghozlane",
        "wilayaId": "10",
        "arName": "سور الغزلان",
        "longitude": "36.1694764",
        "latitude": "3.55647"
    },
    {
        "id": "347",
        "postalCode": "10039",
        "name": "Maamora",
        "wilayaId": "10",
        "arName": "المعمورة",
        "longitude": "35.9979399",
        "latitude": "3.525493"
    },
    {
        "id": "348",
        "postalCode": "10040",
        "name": "Ouled Rached",
        "wilayaId": "10",
        "arName": "أولاد راشد",
        "longitude": "36.2020432",
        "latitude": "3.9321509"
    },
    {
        "id": "349",
        "postalCode": "10041",
        "name": "Ain Laloui",
        "wilayaId": "10",
        "arName": "عين العلوي",
        "longitude": "36.3067411",
        "latitude": "3.6860828"
    },
    {
        "id": "350",
        "postalCode": "10042",
        "name": "Hadjera Zerga",
        "wilayaId": "10",
        "arName": "الحجرة الزرقاء",
        "longitude": "35.9465348",
        "latitude": "3.6906234"
    },
    {
        "id": "351",
        "postalCode": "10043",
        "name": "Ath Mansour",
        "wilayaId": "10",
        "arName": "آث منصور",
        "longitude": "36.2991769",
        "latitude": "4.2484448"
    },
    {
        "id": "352",
        "postalCode": "10044",
        "name": "El Mokrani",
        "wilayaId": "10",
        "arName": "المقراني",
        "longitude": "36.4249768",
        "latitude": "3.5341619"
    },
    {
        "id": "353",
        "postalCode": "10045",
        "name": "Oued El Berdi",
        "wilayaId": "10",
        "arName": "وادى البردي",
        "longitude": "36.257285",
        "latitude": "3.8546965"
    },
    {
        "id": "354",
        "postalCode": "11001",
        "name": "Tamanghasset",
        "wilayaId": "11",
        "arName": "تمنراست",
        "longitude": "22.2707733",
        "latitude": "4.5540574"
    },
    {
        "id": "355",
        "postalCode": "11002",
        "name": "Abalessa",
        "wilayaId": "11",
        "arName": "أبلسة",
        "longitude": "21.984742",
        "latitude": "2.2077874"
    },
    {
        "id": "356",
        "postalCode": "11003",
        "name": "In Ghar",
        "wilayaId": "11",
        "arName": "عـيـن غــار",
        "longitude": "27.1037909",
        "latitude": "1.8904637"
    },
    {
        "id": "357",
        "postalCode": "11004",
        "name": "In Guezzam",
        "wilayaId": "11",
        "arName": "عين قزام",
        "longitude": "20.3875487",
        "latitude": "4.7892187"
    },
    {
        "id": "358",
        "postalCode": "11005",
        "name": "Idles",
        "wilayaId": "11",
        "arName": "إدلس",
        "longitude": "23.8174829",
        "latitude": "5.9250425"
    },
    {
        "id": "359",
        "postalCode": "11006",
        "name": "Tazouk",
        "wilayaId": "11",
        "arName": "تاظروك",
        "longitude": "23.4241274",
        "latitude": "6.2425195"
    },
    {
        "id": "360",
        "postalCode": "11007",
        "name": "Tinzaouatine",
        "wilayaId": "11",
        "arName": "تين زاوتين",
        "longitude": "20.4281421",
        "latitude": "2.0907022"
    },
    {
        "id": "361",
        "postalCode": "11008",
        "name": "In Salah",
        "wilayaId": "11",
        "arName": "عين صالح",
        "longitude": "27.1955358",
        "latitude": "2.4666218"
    },
    {
        "id": "362",
        "postalCode": "11009",
        "name": "In Amguel",
        "wilayaId": "11",
        "arName": "ان أمقل",
        "longitude": "24.9098562",
        "latitude": "1.2189579"
    },
    {
        "id": "363",
        "postalCode": "11010",
        "name": "Foggaret Ezzaouia",
        "wilayaId": "11",
        "arName": "فقارة الزوى",
        "longitude": "27.3604139",
        "latitude": "2.8384638"
    },
    {
        "id": "364",
        "postalCode": "12001",
        "name": "Tebessa",
        "wilayaId": "12",
        "arName": "تبسة",
        "longitude": "35.4117209",
        "latitude": "8.0755254"
    },
    {
        "id": "365",
        "postalCode": "12002",
        "name": "Bir El Ater",
        "wilayaId": "12",
        "arName": "بئر العاتر",
        "longitude": "34.7546133",
        "latitude": "8.0234307"
    },
    {
        "id": "366",
        "postalCode": "12003",
        "name": "Cheria",
        "wilayaId": "12",
        "arName": "الــشــريــعـة",
        "longitude": "35.267904",
        "latitude": "7.7355765"
    },
    {
        "id": "367",
        "postalCode": "12004",
        "name": "Stah Guentis",
        "wilayaId": "12",
        "arName": "سطح قنطيس",
        "longitude": "34.9951892",
        "latitude": "7.2928362"
    },
    {
        "id": "368",
        "postalCode": "12005",
        "name": "El Aouinet",
        "wilayaId": "12",
        "arName": "العوينات",
        "longitude": "35.8685842",
        "latitude": "7.8693435"
    },
    {
        "id": "369",
        "postalCode": "12006",
        "name": "Lahouidjbet",
        "wilayaId": "12",
        "arName": "الحويجبات",
        "longitude": "35.292789",
        "latitude": "8.274572"
    },
    {
        "id": "370",
        "postalCode": "12007",
        "name": "Safsaf El Ouesra",
        "wilayaId": "12",
        "arName": "صفصاف الوسرة",
        "longitude": "34.9570976",
        "latitude": "8.1988049"
    },
    {
        "id": "371",
        "postalCode": "12008",
        "name": "Hammamet",
        "wilayaId": "12",
        "arName": "الحمامات",
        "longitude": "35.4519226",
        "latitude": "7.923867"
    },
    {
        "id": "372",
        "postalCode": "12009",
        "name": "Negrine",
        "wilayaId": "12",
        "arName": "نقرين",
        "longitude": "34.485828",
        "latitude": "7.5028466"
    },
    {
        "id": "373",
        "postalCode": "12010",
        "name": "Bir El Mokadem",
        "wilayaId": "12",
        "arName": "بــئــر مــقـدم",
        "longitude": "35.3704867",
        "latitude": "7.8005075"
    },
    {
        "id": "374",
        "postalCode": "12011",
        "name": "El Kouif",
        "wilayaId": "12",
        "arName": "الكويف",
        "longitude": "35.499565",
        "latitude": "8.3115219"
    },
    {
        "id": "375",
        "postalCode": "12012",
        "name": "Morsott",
        "wilayaId": "12",
        "arName": "مرسط",
        "longitude": "35.6694643",
        "latitude": "8.0015659"
    },
    {
        "id": "376",
        "postalCode": "12013",
        "name": "El Ogla",
        "wilayaId": "12",
        "arName": "العقلة",
        "longitude": "35.1833322",
        "latitude": "7.4579122"
    },
    {
        "id": "377",
        "postalCode": "12014",
        "name": "Bir Dheb",
        "wilayaId": "12",
        "arName": "بٔير الذھب",
        "longitude": "35.4117259",
        "latitude": "8.110545"
    },
    {
        "id": "378",
        "postalCode": "12015",
        "name": "El Ogla",
        "wilayaId": "12",
        "arName": "العقلة",
        "longitude": "35.1833322",
        "latitude": "7.4579122"
    },
    {
        "id": "379",
        "postalCode": "12016",
        "name": "Gorriguer",
        "wilayaId": "12",
        "arName": "قوريقر",
        "longitude": "35.1833322",
        "latitude": "7.4579122"
    },
    {
        "id": "380",
        "postalCode": "12017",
        "name": "Bekkaria",
        "wilayaId": "12",
        "arName": "بكارية",
        "longitude": "35.3666661",
        "latitude": "8.2412452"
    },
    {
        "id": "381",
        "postalCode": "12018",
        "name": "Boukhadra",
        "wilayaId": "12",
        "arName": "بوخضرة",
        "longitude": "35.7490236",
        "latitude": "8.0267572"
    },
    {
        "id": "382",
        "postalCode": "12019",
        "name": "Ouenza",
        "wilayaId": "12",
        "arName": "الونزة",
        "longitude": "35.9421139",
        "latitude": "8.1088536"
    },
    {
        "id": "383",
        "postalCode": "12020",
        "name": "El Ma El Biodh",
        "wilayaId": "12",
        "arName": "الماء الأبيض",
        "longitude": "35.2066339",
        "latitude": "8.1509541"
    },
    {
        "id": "384",
        "postalCode": "12021",
        "name": "Oum Ali",
        "wilayaId": "12",
        "arName": "أم على",
        "longitude": "35.0115532",
        "latitude": "8.2926392"
    },
    {
        "id": "385",
        "postalCode": "12022",
        "name": "Tlidjene",
        "wilayaId": "12",
        "arName": "ثليجان",
        "longitude": "35.1184512",
        "latitude": "7.7597808"
    },
    {
        "id": "386",
        "postalCode": "12023",
        "name": "Ain Zerga",
        "wilayaId": "12",
        "arName": "عين الزرقاء",
        "longitude": "35.6333322",
        "latitude": "8.2579122"
    },
    {
        "id": "387",
        "postalCode": "12024",
        "name": "El Meridj",
        "wilayaId": "12",
        "arName": "المريج",
        "longitude": "35.7935581",
        "latitude": "8.2175374"
    },
    {
        "id": "388",
        "postalCode": "12025",
        "name": "Boulhaf Dyr",
        "wilayaId": "12",
        "arName": "بولحاف الدير",
        "longitude": "35.4117259",
        "latitude": "8.110545"
    },
    {
        "id": "389",
        "postalCode": "12026",
        "name": "Bedjene",
        "wilayaId": "12",
        "arName": "بجن",
        "longitude": "35.3487094",
        "latitude": "7.469641"
    },
    {
        "id": "390",
        "postalCode": "12027",
        "name": "El Mazeraa",
        "wilayaId": "12",
        "arName": "المزرعة",
        "longitude": "35.4117259",
        "latitude": "8.110545"
    },
    {
        "id": "391",
        "postalCode": "12028",
        "name": "Ferkane",
        "wilayaId": "12",
        "arName": "فـــــــركـــــان",
        "longitude": "34.557943",
        "latitude": "7.3995494"
    },
    {
        "id": "392",
        "postalCode": "13001",
        "name": "Tlemcen",
        "wilayaId": "13",
        "arName": "تلمسان",
        "longitude": "34.8959491",
        "latitude": "-1.3501175"
    },
    {
        "id": "393",
        "postalCode": "13002",
        "name": "Beni Mester",
        "wilayaId": "13",
        "arName": "بني مستار",
        "longitude": "34.8639575",
        "latitude": "-1.4356042"
    },
    {
        "id": "394",
        "postalCode": "13003",
        "name": "Ain Tallout",
        "wilayaId": "13",
        "arName": "عين تالوت",
        "longitude": "34.9238688",
        "latitude": "-0.9667326"
    },
    {
        "id": "395",
        "postalCode": "13004",
        "name": "Remchi",
        "wilayaId": "13",
        "arName": "الرمشي",
        "longitude": "35.0550485",
        "latitude": "-1.4635847"
    },
    {
        "id": "396",
        "postalCode": "13005",
        "name": "El Fehoul",
        "wilayaId": "13",
        "arName": "الفحول",
        "longitude": "35.1166788",
        "latitude": "-1.2970948"
    },
    {
        "id": "397",
        "postalCode": "13006",
        "name": "Sabra",
        "wilayaId": "13",
        "arName": "صبرة",
        "longitude": "34.8255654",
        "latitude": "-1.5368414"
    },
    {
        "id": "398",
        "postalCode": "13007",
        "name": "Ghazaouet",
        "wilayaId": "13",
        "arName": "الغزوات",
        "longitude": "35.0934337",
        "latitude": "-1.8720748"
    },
    {
        "id": "399",
        "postalCode": "13008",
        "name": "Souani",
        "wilayaId": "13",
        "arName": "السواني",
        "longitude": "34.9184687",
        "latitude": "-1.92235"
    },
    {
        "id": "400",
        "postalCode": "13009",
        "name": "Djebala",
        "wilayaId": "13",
        "arName": "جبالة",
        "longitude": "34.9775481",
        "latitude": "-1.8940714"
    },
    {
        "id": "401",
        "postalCode": "13010",
        "name": "El Gor",
        "wilayaId": "13",
        "arName": "الغور",
        "longitude": "34.6356392",
        "latitude": "-1.1625071"
    },
    {
        "id": "402",
        "postalCode": "13011",
        "name": "Oued Chouly",
        "wilayaId": "13",
        "arName": "وادى الشولى",
        "longitude": "34.8666661",
        "latitude": "-1.1420878"
    },
    {
        "id": "403",
        "postalCode": "13012",
        "name": "Ain Fezza",
        "wilayaId": "13",
        "arName": "عين فزّة",
        "longitude": "34.8794264",
        "latitude": "-1.2421418"
    },
    {
        "id": "404",
        "postalCode": "13013",
        "name": "Ouled Mimoun",
        "wilayaId": "13",
        "arName": "أولاد ميمون",
        "longitude": "34.9018053",
        "latitude": "-1.0442162"
    },
    {
        "id": "405",
        "postalCode": "13014",
        "name": "Amieur",
        "wilayaId": "13",
        "arName": "عمير",
        "longitude": "34.8959541",
        "latitude": "-1.3150979"
    },
    {
        "id": "406",
        "postalCode": "13015",
        "name": "Ain Youcef",
        "wilayaId": "13",
        "arName": "عين يوسف",
        "longitude": "35.048443",
        "latitude": "-1.3841379"
    },
    {
        "id": "407",
        "postalCode": "13016",
        "name": "Zenata",
        "wilayaId": "13",
        "arName": "زناتة",
        "longitude": "34.9849042",
        "latitude": "-1.4760198"
    },
    {
        "id": "408",
        "postalCode": "13017",
        "name": "Beni Snous",
        "wilayaId": "13",
        "arName": "بنى سنوس",
        "longitude": "34.6593315",
        "latitude": "-1.5615608"
    },
    {
        "id": "409",
        "postalCode": "13018",
        "name": "Bab El Assa",
        "wilayaId": "13",
        "arName": "باب العسة",
        "longitude": "34.9654779",
        "latitude": "-2.0399109"
    },
    {
        "id": "410",
        "postalCode": "13019",
        "name": "Dar Yaghmouracene",
        "wilayaId": "13",
        "arName": "دار يغمراسن",
        "longitude": "34.8959541",
        "latitude": "-1.3150979"
    },
    {
        "id": "411",
        "postalCode": "13020",
        "name": "Fellaoucene",
        "wilayaId": "13",
        "arName": "فلاوسن",
        "longitude": "35.013723",
        "latitude": "-1.6538313"
    },
    {
        "id": "412",
        "postalCode": "13021",
        "name": "Azails",
        "wilayaId": "13",
        "arName": "العزايل",
        "longitude": "34.8959541",
        "latitude": "-1.3150979"
    },
    {
        "id": "413",
        "postalCode": "13022",
        "name": "Sebbaa Chioukh",
        "wilayaId": "13",
        "arName": "سبعة شيوخ",
        "longitude": "35.1563716",
        "latitude": "-1.3705445"
    },
    {
        "id": "414",
        "postalCode": "13023",
        "name": "Terni Beni Hediel",
        "wilayaId": "13",
        "arName": "تيرني بني هديل",
        "longitude": "34.7966361",
        "latitude": "-1.3623785"
    },
    {
        "id": "415",
        "postalCode": "13024",
        "name": "Bensekrane",
        "wilayaId": "13",
        "arName": "بن سكران",
        "longitude": "35.0745555",
        "latitude": "-1.2362705"
    },
    {
        "id": "416",
        "postalCode": "13025",
        "name": "Ain Nehala",
        "wilayaId": "13",
        "arName": "عين نحالة",
        "longitude": "35.0273782",
        "latitude": "-0.9359407"
    },
    {
        "id": "417",
        "postalCode": "13026",
        "name": "Hennaya",
        "wilayaId": "13",
        "arName": "الحناية",
        "longitude": "34.9490231",
        "latitude": "-1.3866808"
    },
    {
        "id": "418",
        "postalCode": "13027",
        "name": "Maghnia",
        "wilayaId": "13",
        "arName": "مغنية",
        "longitude": "34.8481781",
        "latitude": "-1.780215"
    },
    {
        "id": "419",
        "postalCode": "13028",
        "name": "Hammam Boughrara",
        "wilayaId": "13",
        "arName": "حمام بوغرارة",
        "longitude": "34.8904539",
        "latitude": "-1.6555881"
    },
    {
        "id": "420",
        "postalCode": "13029",
        "name": "Souahlia",
        "wilayaId": "13",
        "arName": "تونان",
        "longitude": "35.0438386",
        "latitude": "-1.9086172"
    },
    {
        "id": "421",
        "postalCode": "13030",
        "name": "Msirda Fouaga",
        "wilayaId": "13",
        "arName": "مسيردة الفواقة",
        "longitude": "35.0142663",
        "latitude": "-2.073219"
    },
    {
        "id": "422",
        "postalCode": "13031",
        "name": "Ain Fetah",
        "wilayaId": "13",
        "arName": "عين فتاح",
        "longitude": "36.0036103",
        "latitude": "0.3170785"
    },
    {
        "id": "423",
        "postalCode": "13032",
        "name": "El Aricha",
        "wilayaId": "13",
        "arName": "العريشة",
        "longitude": "34.2202108",
        "latitude": "-1.2723972"
    },
    {
        "id": "424",
        "postalCode": "13033",
        "name": "Souk Thlata",
        "wilayaId": "13",
        "arName": "سوق الثلاثاء",
        "longitude": "35.0194848",
        "latitude": "-2.0213987"
    },
    {
        "id": "425",
        "postalCode": "13034",
        "name": "Sidi Abdelli",
        "wilayaId": "13",
        "arName": "سيدي العبدلي",
        "longitude": "35.0652344",
        "latitude": "-1.1432004"
    },
    {
        "id": "426",
        "postalCode": "13035",
        "name": "Sebdou",
        "wilayaId": "13",
        "arName": "سبدو",
        "longitude": "34.6392357",
        "latitude": "-1.3469271"
    },
    {
        "id": "427",
        "postalCode": "13036",
        "name": "Beni Ouarsous",
        "wilayaId": "13",
        "arName": "برج عريمة",
        "longitude": "35.0818832",
        "latitude": "-1.5645648"
    },
    {
        "id": "428",
        "postalCode": "13037",
        "name": "Sidi Medjahed",
        "wilayaId": "13",
        "arName": "سيدي مجاهد",
        "longitude": "34.77568",
        "latitude": "-1.6426706"
    },
    {
        "id": "429",
        "postalCode": "13038",
        "name": "Beni Boussaid",
        "wilayaId": "13",
        "arName": "بني بوسعيد",
        "longitude": "34.6490781",
        "latitude": "-1.762104"
    },
    {
        "id": "430",
        "postalCode": "13039",
        "name": "Marsa Ben Mhidi",
        "wilayaId": "13",
        "arName": "مرسى بن مھيدي",
        "longitude": "35.0790982",
        "latitude": "-2.2135629"
    },
    {
        "id": "431",
        "postalCode": "13040",
        "name": "Nedroma",
        "wilayaId": "13",
        "arName": "ندرومة",
        "longitude": "35.0141436",
        "latitude": "-1.769829"
    },
    {
        "id": "432",
        "postalCode": "13041",
        "name": "Sidi Djillali",
        "wilayaId": "13",
        "arName": "سيدي الجيلالي",
        "longitude": "34.4459186",
        "latitude": "-1.5761732"
    },
    {
        "id": "433",
        "postalCode": "13042",
        "name": "Beni Bahdel",
        "wilayaId": "13",
        "arName": "بني بهدل",
        "longitude": "34.7114024",
        "latitude": "-1.5174008"
    },
    {
        "id": "434",
        "postalCode": "13043",
        "name": "El Bouihi",
        "wilayaId": "13",
        "arName": "البويھي",
        "longitude": "34.8959541",
        "latitude": "-1.3150979"
    },
    {
        "id": "435",
        "postalCode": "13044",
        "name": "Honaine",
        "wilayaId": "13",
        "arName": "هنين",
        "longitude": "35.1800515",
        "latitude": "-1.657691"
    },
    {
        "id": "436",
        "postalCode": "13045",
        "name": "Tianet",
        "wilayaId": "13",
        "arName": "تيانت",
        "longitude": "35.0491084",
        "latitude": "-1.8584921"
    },
    {
        "id": "437",
        "postalCode": "13046",
        "name": "Ouled Riyah",
        "wilayaId": "13",
        "arName": "أولاد رياح",
        "longitude": "34.9615122",
        "latitude": "-1.5020585"
    },
    {
        "id": "438",
        "postalCode": "13047",
        "name": "Bouhlou",
        "wilayaId": "13",
        "arName": "بوحلو",
        "longitude": "34.7787462",
        "latitude": "-1.5850461"
    },
    {
        "id": "439",
        "postalCode": "13048",
        "name": "Souk El Khemis",
        "wilayaId": "13",
        "arName": "سوق الخميس",
        "longitude": "35.1732293",
        "latitude": "-1.5607239"
    },
    {
        "id": "440",
        "postalCode": "13049",
        "name": "Ain Ghoraba",
        "wilayaId": "13",
        "arName": "عين غرابة",
        "longitude": "34.7147251",
        "latitude": "-1.4039435"
    },
    {
        "id": "441",
        "postalCode": "13050",
        "name": "Chetouane",
        "wilayaId": "13",
        "arName": "شتوان",
        "longitude": "34.9175348",
        "latitude": "-1.3164927"
    },
    {
        "id": "442",
        "postalCode": "13051",
        "name": "Mansourah",
        "wilayaId": "13",
        "arName": "المنصورة",
        "longitude": "34.8704299",
        "latitude": "-1.389299"
    },
    {
        "id": "443",
        "postalCode": "13052",
        "name": "Beni Semiel",
        "wilayaId": "13",
        "arName": "بني مستار",
        "longitude": "34.8639575",
        "latitude": "-1.4356042"
    },
    {
        "id": "444",
        "postalCode": "13053",
        "name": "Ain Kebira",
        "wilayaId": "13",
        "arName": "عين الكبيرة",
        "longitude": "35.0317001",
        "latitude": "-1.686101"
    },
    {
        "id": "445",
        "postalCode": "14001",
        "name": "Tiaret",
        "wilayaId": "14",
        "arName": "تيارت‎",
        "longitude": "35.3599696",
        "latitude": "1.3215754"
    },
    {
        "id": "446",
        "postalCode": "14002",
        "name": "Medroussa",
        "wilayaId": "14",
        "arName": "مدروسة",
        "longitude": "35.1752197",
        "latitude": "1.1979175"
    },
    {
        "id": "447",
        "postalCode": "14003",
        "name": "Ain Bouchekif",
        "wilayaId": "14",
        "arName": "بوشقيف",
        "longitude": "35.3543704",
        "latitude": "1.5036248"
    },
    {
        "id": "448",
        "postalCode": "14004",
        "name": "Sidi Ali Mellal",
        "wilayaId": "14",
        "arName": "سيدي علي ملال",
        "longitude": "35.5635054",
        "latitude": "1.2199974"
    },
    {
        "id": "449",
        "postalCode": "14005",
        "name": "Ain Zarit",
        "wilayaId": "14",
        "arName": "عين زاريت",
        "longitude": "35.351973",
        "latitude": "1.6572618"
    },
    {
        "id": "450",
        "postalCode": "14006",
        "name": "Ain Deheb",
        "wilayaId": "14",
        "arName": "عين الذهب",
        "longitude": "34.847125",
        "latitude": "1.530876"
    },
    {
        "id": "451",
        "postalCode": "14007",
        "name": "Sidi Bakhti",
        "wilayaId": "14",
        "arName": "سيدي بختي",
        "longitude": "35.2393277",
        "latitude": "0.9755382"
    },
    {
        "id": "452",
        "postalCode": "14008",
        "name": "Medrissa",
        "wilayaId": "14",
        "arName": "مدريسة",
        "longitude": "34.8949768",
        "latitude": "1.2315845"
    },
    {
        "id": "453",
        "postalCode": "14009",
        "name": "Zmalet El Emir Aek",
        "wilayaId": "14",
        "arName": "زمالة الأمير عبد القادر",
        "longitude": "34.899755",
        "latitude": "2.279362"
    },
    {
        "id": "454",
        "postalCode": "14010",
        "name": "Madna",
        "wilayaId": "14",
        "arName": "مادنة",
        "longitude": "35.3599899",
        "latitude": "1.3916159"
    },
    {
        "id": "455",
        "postalCode": "14011",
        "name": "Sebt",
        "wilayaId": "14",
        "arName": "السبت",
        "longitude": "35.3599899",
        "latitude": "1.3916159"
    },
    {
        "id": "456",
        "postalCode": "14012",
        "name": "Mellakou",
        "wilayaId": "14",
        "arName": "ملاكو",
        "longitude": "35.2514714",
        "latitude": "1.2272501"
    },
    {
        "id": "457",
        "postalCode": "14013",
        "name": "Dahmouni",
        "wilayaId": "14",
        "arName": "دحموني",
        "longitude": "35.4166137",
        "latitude": "1.4674473"
    },
    {
        "id": "458",
        "postalCode": "14014",
        "name": "Rahouia",
        "wilayaId": "14",
        "arName": "رحوية",
        "longitude": "35.5308956",
        "latitude": "1.0130642"
    },
    {
        "id": "459",
        "postalCode": "14015",
        "name": "Mahdia",
        "wilayaId": "14",
        "arName": "المھدية",
        "longitude": "35.4312648",
        "latitude": "1.7415474"
    },
    {
        "id": "460",
        "postalCode": "14016",
        "name": "Sougueur",
        "wilayaId": "14",
        "arName": "سوقر",
        "longitude": "35.1812014",
        "latitude": "1.4648287"
    },
    {
        "id": "461",
        "postalCode": "14017",
        "name": "Sidi Abdelghani",
        "wilayaId": "14",
        "arName": "سيدي عبد الغنى",
        "longitude": "35.2355935",
        "latitude": "1.6199474"
    },
    {
        "id": "462",
        "postalCode": "14018",
        "name": "Ain El Hadid",
        "wilayaId": "14",
        "arName": "عين الحديد",
        "longitude": "35.0604573",
        "latitude": "0.8713103"
    },
    {
        "id": "463",
        "postalCode": "14019",
        "name": "Ouled Djerad",
        "wilayaId": "14",
        "arName": "اولاد جراد",
        "longitude": "35.3599899",
        "latitude": "1.3916159"
    },